zipcode,centile,superzip,rank,city,state,adultpop,households,college,income,zip_code,latitude,longitude,city,state,county
38157,99.99999,1,,Memphis,TN,17,5,100%,261.5213,501,40.922326,-72.637078,Holtsville,NY,Suffolk
60043,99.99955,1,1,Kenilworth,IL,1581,732,88.87%,261.5213,544,40.922326,-72.637078,Holtsville,NY,Suffolk
19732,99.99911,1,,Rockland,DE,46,19,84.78%,261.5213,601,18.165273,-66.722583,Adjuntas,PR,Adjuntas
77010,99.99908,1,,Houston,TX,53,19,83.02%,261.5213,602,18.393103,-67.180953,Aguada,PR,Aguada
10597,99.99901,1,,Waccabuc,NY,215,83,80.93%,261.5213,603,18.455913,-67.14578,Aguadilla,PR,Aguadilla
60022,99.99741,1,2,Glencoe,IL,5578,2492,80.67%,261.5213,604,18.49352,-67.135883,Aguadilla,PR,Aguadilla
7078,99.99359,1,3,Short Hills,NJ,8347,3692,79.23%,261.5213,605,18.465162,-67.141486,Aguadilla,PR,Aguadilla
19736,99.99129,1,,Yorklyn,DE,40,22,77.50%,261.5213,606,18.172947,-66.944111,Maricao,PR,Maricao
94027,99.98998,1,4,Atherton,CA,4756,1859,75.63%,261.5213,610,18.288685,-67.139696,Anasco,PR,Anasco
10514,99.98656,1,5,Chappaqua,NY,7648,3408,79.42%,247.8817,611,18.279531,-66.80217,Angeles,PR,Utuado
46290,99.98444,1,,Indianapolis,IN,147,60,70.75%,261.5213,612,18.450674,-66.698262,Arecibo,PR,Arecibo
33109,99.98431,1,,Miami Beach,FL,308,118,68.18%,261.5213,613,18.458093,-66.732732,Arecibo,PR,Arecibo
10503,99.98418,1,,Ardsley on Hudson,NY,108,40,96.30%,212.485,614,18.429675,-66.674506,Arecibo,PR,Arecibo
19035,99.98334,1,6,Gladwyne,PA,2962,1057,66.98%,261.5213,616,18.444792,-66.640678,Bajadero,PR,Arecibo
94028,99.98116,1,7,Portola Valley,CA,4966,1918,80.59%,237.1163,617,18.447092,-66.544255,Barceloneta,PR,Barceloneta
92067,99.97844,1,8,Rancho Santa Fe,CA,4972,2103,64.70%,261.5213,622,17.998531,-67.187318,Boqueron,PR,Cabo Rojo
13475,99.97707,1,,Van Hornesville,NY,5,2,100%,199.1972,623,18.062201,-67.149541,Cabo Rojo,PR,Cabo Rojo
33945,99.97706,1,,Pineland,FL,69,24,63.77%,261.5213,624,18.023535,-66.726156,Penuelas,PR,Penuelas
2493,99.97501,1,9,Weston,MA,7373,3035,75.10%,236.7292,627,18.477891,-66.85477,Camuy,PR,Camuy
10577,99.97255,1,10,Purchase,NY,1573,663,69.68%,244.5461,631,18.269187,-66.864993,Castaner,PR,Lares
30327,99.96794,1,11,Atlanta,GA,15235,5781,78.19%,228.7738,636,18.113284,-67.039706,Rosario,PR,San German
19085,99.9627,1,12,Villanova,PA,3841,1606,76.72%,228.1906,637,18.087322,-66.934911,Sabana Grande,PR,Sabana Grande
2108,99.96086,1,13,Boston,MA,2874,592,72.51%,229.9284,638,18.33616,-66.472087,Ciales,PR,Ciales
7021,99.95969,1,14,Essex Fells,NJ,1427,603,72.53%,229.8748,641,18.250027,-66.698957,Utuado,PR,Utuado
11568,99.95869,1,15,Old Westbury,NY,2171,869,64.90%,240.9881,646,18.43606,-66.281954,Dorado,PR,Dorado
6840,99.95459,1,16,New Canaan,CT,12802,5234,71.53%,228.9385,647,17.969594,-66.939754,Ensenada,PR,Guanica
10518,99.95078,1,17,Cross River,NY,1066,486,71.76%,226.6908,650,18.360125,-66.562311,Florida,PR,Florida
90402,99.94816,1,18,Santa Monica,CA,8523,2984,70.47%,227.7617,652,18.457254,-66.603358,Garrochales,PR,Arecibo
6820,99.94232,1,19,Darien,CT,12665,5409,70.45%,227.2308,653,17.972468,-66.898661,Guanica,PR,Guanica
33921,99.93846,1,20,Boca Grande,FL,1432,605,68.65%,227.9212,656,18.02328,-66.786909,Guayanilla,PR,Guayanilla
98243,99.93803,1,,Deer Harbor,WA,116,45,57.76%,246.3035,659,18.481391,-66.808696,Hatillo,PR,Hatillo
90077,99.93584,1,21,Los Angeles,CA,7904,2910,70.81%,223.2753,660,18.145486,-67.135323,Hormigueros,PR,Hormigueros
10162,99.93327,1,22,New York,NY,1415,480,82.76%,202.5054,662,18.480285,-67.028155,Isabela,PR,Isabela
10069,99.93251,1,23,New York,NY,1376,422,84.16%,200.017,664,18.217606,-66.598306,Jayuya,PR,Jayuya
60093,99.92861,1,24,Winnetka,IL,12842,5488,75.89%,212.6249,667,18.015099,-67.055973,Lajas,PR,Lajas
2468,99.92398,1,25,Waban,MA,3980,1677,81.46%,201.9248,669,18.295952,-66.881925,Lares,PR,Lares
60045,99.91901,1,26,Lake Forest,IL,14150,5921,72.71%,216.464,670,18.252135,-66.990967,Las Marias,PR,Las Marias
10576,99.91423,1,27,Pound Ridge,NY,3257,1380,70.46%,219.9017,674,18.44553,-66.490268,Manati,PR,Manati
6883,99.91158,1,28,Weston,CT,6403,2836,74.45%,211.873,676,18.383727,-67.080799,Moca,PR,Moca
94022,99.90607,1,29,Los Altos,CA,13683,5376,73.66%,213.161,677,18.335781,-67.252547,Rincon,PR,Rincon
2030,99.90133,1,30,Dover,MA,3586,1571,77.80%,205.5129,678,18.45303,-66.933689,Quebradillas,PR,Quebradillas
10506,99.89934,1,31,Bedford,NY,3659,1579,70.32%,217.8945,680,18.219023,-67.508068,Mayaguez,PR,Mayaguez
60029,99.89828,1,,Golf,IL,234,100,84.62%,193.0933,681,18.219023,-67.508068,Mayaguez,PR,Mayaguez
95618,99.89806,1,32,Davis,CA,512,207,71.68%,212.4732,682,18.219023,-67.508068,Mayaguez,PR,Mayaguez
22066,99.89487,1,33,Great Falls,VA,11141,4969,73.95%,208.2641,683,18.113284,-67.039706,San German,PR,San German
78730,99.89091,1,34,Austin,TX,3322,1384,71.22%,211.7933,685,18.3236,-66.972227,San Sebastian,PR,San Sebastian
90272,99.88544,1,35,Pacific Palisades,CA,16633,6453,70.27%,211.639,687,18.316976,-66.415207,Morovis,PR,Morovis
7931,99.88034,1,36,Far Hills,NJ,1865,773,65.79%,218.836,688,18.429675,-66.674506,Sabana Hoyos,PR,Arecibo
7046,99.87912,1,37,Mountain Lakes,NJ,2624,1214,76.11%,200.3596,690,18.476196,-67.139597,San Antonio,PR,Aguadilla
10028,99.86842,1,38,New York,NY,36366,9188,77.74%,197.1168,692,18.435818,-66.338523,Vega Alta,PR,Vega Alta
1741,99.85757,1,39,Carlisle,MA,3146,1406,83.41%,186.1369,693,18.443109,-66.398302,Vega Baja,PR,Vega Baja
6897,99.85355,1,40,Wilton,CT,11515,4858,70.73%,207.1434,694,18.443109,-66.398302,Vega Baja,PR,Vega Baja
77005,99.84606,1,41,Houston,TX,15746,5882,77.12%,195.4404,698,18.06104,-66.861164,Yauco,PR,Yauco
10022,99.83436,1,42,New York,NY,26893,6274,71.96%,203.5842,703,18.250398,-66.12845,Aguas Buenas,PR,Aguas Buenas
75225,99.82313,1,43,Dallas,TX,14008,5478,74.98%,197.7889,704,17.99229,-66.139253,Aguirre,PR,Guayama
92657,99.81815,1,44,Newport Coast,CA,4152,1547,74.06%,198.9749,705,18.128092,-66.268717,Aibonito,PR,Aibonito
28207,99.81531,1,45,Charlotte,NC,6204,2047,73.29%,199.0939,707,18.007014,-65.898719,Maunabo,PR,Maunabo
10021,99.78984,1,46,New York,NY,86540,20928,75.28%,195.3123,714,17.96751,-66.04138,Arroyo,PR,Arroyo
94301,99.76263,1,47,Palo Alto,CA,12646,3721,76.50%,192.7115,715,18.011854,-66.563721,Mercedita,PR,Ponce
10510,99.75737,1,48,Briarcliff Manor,NY,6431,2629,70.75%,202.1628,716,18.001995,-66.607429,Ponce,PR,Ponce
20816,99.75265,1,49,Bethesda,MD,10854,4319,79.94%,186.1499,717,18.001995,-66.607429,Ponce,PR,Ponce
20854,99.74097,1,50,Potomac,MD,31674,13537,76.27%,192.365,718,18.22139,-65.77831,Naguabo,PR,Naguabo
10538,99.7291,1,51,Larchmont,NY,11598,4708,70.98%,200.6251,719,18.298017,-66.229751,Naranjito,PR,Naranjito
63124,99.72389,1,52,Saint Louis,MO,7345,2789,65.57%,209.3141,720,18.226862,-66.39402,Orocovis,PR,Orocovis
75205,99.71784,1,53,Dallas,TX,14723,4968,73.01%,196.4277,721,18.364161,-65.778288,Palmer,PR,Rio Grande
98039,99.7132,1,54,Medina,WA,2129,901,72.99%,196.3597,723,18.009994,-66.010572,Patillas,PR,Patillas
10583,99.70547,1,55,Scarsdale,NY,26102,10873,70.37%,200.2341,725,18.212965,-66.058033,Caguas,PR,Caguas
6853,99.69759,1,56,Norwalk,CT,2599,980,68.91%,201.5783,726,18.212965,-66.058033,Caguas,PR,Caguas
6880,99.69196,1,57,Westport,CT,17889,7182,69.49%,200.2341,727,18.212965,-66.058033,Caguas,PR,Caguas
7970,99.687,1,,Mount Freedom,NJ,189,86,71.43%,196.14,728,18.001995,-66.607429,Ponce,PR,Ponce
95070,99.68106,1,58,Saratoga,CA,21476,8815,67.86%,201.2985,729,18.333093,-65.883864,Canovanas,PR,Canovanas
2481,99.67262,1,59,Wellesley Hills,MA,9273,3866,79.52%,180.2932,730,18.001995,-66.607429,Ponce,PR,Ponce
20812,99.67003,1,,Glen Echo,MD,162,62,84.57%,171.548,731,18.03831,-66.626344,Ponce,PR,Ponce
20818,99.66962,1,60,Cabin John,MD,1325,530,77.21%,183.2379,732,18.021781,-66.613742,Ponce,PR,Ponce
95030,99.66657,1,61,Los Gatos,CA,9795,3460,67.34%,199.6195,733,18.019331,-66.619165,Ponce,PR,Ponce
22101,99.65833,1,62,McLean,VA,20232,8190,75.64%,185.0267,734,17.999499,-66.643934,Ponce,PR,Ponce
94024,99.64854,1,63,Los Altos,CA,15378,6376,72.13%,190.6952,735,18.264872,-65.594769,Ceiba,PR,Ceiba
20007,99.63944,1,64,Washington,DC,17804,4295,83.07%,171.5035,736,18.102967,-66.139274,Cayey,PR,Cayey
19710,99.63454,1,,Montchanin,DE,26,8,30.77%,261.5213,737,18.102967,-66.139274,Cayey,PR,Cayey
10280,99.63304,1,65,New York,NY,5422,1613,78.27%,179.0758,738,18.359381,-65.611361,Fajardo,PR,Fajardo
11576,99.62926,1,66,Roslyn,NY,8374,3533,67.16%,196.4878,739,18.181469,-66.169519,Cidra,PR,Cidra
20016,99.62091,1,67,Washington,DC,22077,6355,78.67%,174.9843,740,18.331958,-65.63878,Puerto Real,PR,Fajardo
7043,99.61266,1,68,Montclair,NJ,7984,3233,73.57%,183.557,741,18.162156,-65.753485,Punta Santiago,PR,Humacao
20815,99.60468,1,69,Chevy Chase,MD,21067,7353,78.72%,174.3135,742,18.264872,-65.594769,Roosevelt Roads,PR,Ceiba
6870,99.59756,1,70,Old Greenwich,CT,4833,2019,72.05%,185.5327,744,18.206329,-65.743058,Rio Blanco,PR,Naguabo
2199,99.59599,1,71,Boston,MA,909,184,76.68%,176.6097,745,18.367347,-65.816583,Rio Grande,PR,Rio Grande
44040,99.59519,1,72,Gates Mills,OH,2055,872,63.94%,198.4701,751,17.99852,-66.264825,Salinas,PR,Salinas
8550,99.59162,1,73,Princeton Junction,NJ,10947,4896,73.65%,181.6819,754,18.187584,-65.962389,San Lorenzo,PR,San Lorenzo
1773,99.5876,1,74,Lincoln,MA,3659,1489,76.93%,175.9637,757,17.991233,-66.395543,Santa Isabel,PR,Santa Isabel
94507,99.58385,1,75,Alamo,CA,10035,4350,63.57%,198.9461,765,18.123347,-65.460356,Vieques,PR,Vieques
1770,99.58034,1,76,Sherborn,MA,2728,1233,75.62%,178.1095,766,18.120519,-66.496607,Villalba,PR,Villalba
10024,99.5659,1,77,New York,NY,49837,12623,73.93%,180.6685,767,18.045522,-65.886988,Yabucoa,PR,Yabucoa
22124,99.54959,1,78,Oakton,VA,9621,3951,72.81%,182.0898,769,18.095992,-66.35081,Coamo,PR,Coamo
94920,99.54424,1,79,Belvedere Tiburon,CA,9915,3669,69.66%,187.3856,771,18.196576,-65.87197,Las Piedras,PR,Las Piedras
60614,99.52798,1,80,Chicago,IL,49266,10767,78.40%,172.2109,772,18.447406,-65.899357,Loiza,PR,Loiza
94506,99.51097,1,81,Danville,CA,12731,5664,65.07%,195.0508,773,18.366027,-65.708138,Luquillo,PR,Luquillo
8558,99.50655,1,82,Skillman,NJ,3355,1443,69.96%,186.5095,775,18.323736,-65.296467,Culebra,PR,Culebra
7423,99.50485,1,83,Ho Ho Kus,NJ,2776,1192,68.34%,189.0633,777,18.206489,-65.901774,Juncos,PR,Juncos
10804,99.50142,1,84,New Rochelle,NY,9745,4033,70.02%,186.0231,778,18.259092,-65.974641,Gurabo,PR,Gurabo
20817,99.49184,1,85,Bethesda,MD,25142,10177,77.43%,172.4267,780,18.001995,-66.607429,Coto Laurel,PR,Ponce
94563,99.48149,1,86,Orinda,CA,12604,5358,74.54%,175.3439,782,18.224958,-66.219885,Comerio,PR,Comerio
11030,99.47478,1,87,Manhasset,NY,11864,4789,63.16%,194.5316,783,18.304369,-66.330525,Corozal,PR,Corozal
20008,99.46548,1,88,Washington,DC,21998,4687,81.58%,162.3242,784,17.99229,-66.139253,Guayama,PR,Guayama
60601,99.4581,1,89,Chicago,IL,4918,1318,71.31%,179.8721,785,18.018822,-66.795603,Guayama,PR,Guayanilla
94123,99.45113,1,90,San Francisco,CA,20475,4020,74.45%,174.2181,786,18.128092,-66.268717,La Plata,PR,Aibonito
22039,99.44225,1,91,Fairfax Station,VA,11824,5395,68.79%,183.5988,791,18.138029,-65.788499,Humacao,PR,Humacao
10546,99.43877,1,92,Millwood,NY,825,349,70.91%,179.0444,792,18.138029,-65.788499,Humacao,PR,Humacao
10004,99.43828,1,93,New York,NY,1020,221,75.98%,170.2587,794,18.200898,-66.307236,Barranquitas,PR,Barranquitas
90049,99.43073,1,94,Los Angeles,CA,26487,7837,70.03%,180.3769,795,17.997367,-66.493218,Juana Diaz,PR,Juana Diaz
7945,99.42176,1,95,Mendham,NJ,6166,2565,67.56%,184.5259,801,18.322285,-64.963715,St Thomas,VI,Saint Thomas
85253,99.41657,1,96,Paradise Valley,AZ,12735,5188,64.68%,189.4595,802,18.322285,-64.963715,St Thomas,VI,Saint Thomas
28378,99.41306,1,,Rex,NC,27,16,22.22%,261.5213,803,18.322285,-64.963715,St Thomas,VI,Saint Thomas
90210,99.40857,1,97,Beverly Hills,CA,16357,5773,55.46%,203.4443,804,18.322285,-64.963715,St Thomas,VI,Saint Thomas
22182,99.3998,1,98,Vienna,VA,15588,6486,72.90%,173.2949,805,18.322285,-64.963715,St Thomas,VI,Saint Thomas
63005,99.39265,1,99,Chesterfield,MO,10435,4721,66.51%,183.438,820,17.734211,-64.734694,Christiansted,VI,Saint Croix
10007,99.38902,1,100,New York,NY,2814,563,56.89%,199.7137,821,17.734211,-64.734694,Christiansted,VI,Saint Croix
27706,99.38821,1,,Durham,NC,97,42,65.98%,184.0526,822,17.734211,-64.734694,Christiansted,VI,Saint Croix
10504,99.38691,1,101,Armonk,NY,4651,2029,60.65%,193.1718,823,17.734211,-64.734694,Christiansted,VI,Saint Croix
20015,99.38238,1,102,Washington,DC,11879,3530,68.41%,179.7545,824,17.734211,-64.734694,Christiansted,VI,Saint Croix
60523,99.37699,1,103,Oak Brook,IL,7761,2741,54.59%,202.6061,830,18.32816,-64.740737,St John,VI,Saint John
77046,99.37475,1,,Houston,TX,423,121,74.23%,168.7549,831,18.32816,-64.740737,St John,VI,Saint John
6878,99.37325,1,104,Riverside,CT,5044,2087,65.07%,184.1755,840,17.734211,-64.734694,Frederiksted,VI,Saint Croix
94708,99.36956,1,105,Berkeley,CA,8386,2910,81.58%,155.6894,841,17.734211,-64.734694,Frederiksted,VI,Saint Croix
66221,99.36631,1,106,Overland Park,KS,3446,1678,72.66%,171.0249,850,17.734211,-64.734694,Kingshill,VI,Saint Croix
10005,99.36517,1,107,New York,NY,703,119,74.68%,167.2303,851,17.734211,-64.734694,Kingshill,VI,Saint Croix
78746,99.36043,1,108,Austin,TX,16567,6922,75.54%,165.7291,901,18.465901,-66.103568,San Juan,PR,San Juan
10580,99.35277,1,109,Rye,NY,11312,4488,68.06%,178.2036,902,18.410462,-66.060533,San Juan,PR,San Juan
1776,99.3467,1,110,Sudbury,MA,10824,4836,71.89%,170.5097,906,18.410462,-66.060533,San Juan,PR,San Juan
48302,99.34042,1,111,Bloomfield Hills,MI,12025,4926,65.59%,180.6946,907,18.451647,-66.077003,San Juan,PR,San Juan
30305,99.33241,1,112,Atlanta,GA,17148,4424,69.33%,173.9775,908,18.410462,-66.060533,San Juan,PR,San Juan
2482,99.3258,1,113,Wellesley,MA,6955,2688,71.04%,170.9661,909,18.443384,-66.068133,San Juan,PR,San Juan
11724,99.32334,1,114,Cold Spring Harbor,NY,1994,859,66.15%,179.0039,910,18.410462,-66.060533,San Juan,PR,San Juan
77094,99.32156,1,115,Houston,TX,4507,2179,73.97%,164.4372,911,18.450828,-66.057859,San Juan,PR,San Juan
7842,99.32031,1,,Hibernia,NJ,47,24,68.09%,174.3789,912,18.444187,-66.059859,San Juan,PR,San Juan
94707,99.31781,1,116,Berkeley,CA,9059,3332,79.98%,153.7973,913,18.450735,-66.043352,San Juan,PR,San Juan
2110,99.31499,1,117,Boston,MA,1246,309,76.73%,159.1598,914,18.410462,-66.060533,San Juan,PR,San Juan
20896,99.31451,1,,Garrett Park,MD,429,178,77.62%,156.0267,915,18.437896,-66.048087,San Juan,PR,San Juan
19009,99.3144,1,,Bryn Athyn,PA,51,20,82.35%,147.105,916,18.410462,-66.060533,San Juan,PR,San Juan
91108,99.31192,1,118,San Marino,CA,8927,3789,70.25%,167.7952,917,18.422018,-66.050602,San Juan,PR,San Juan
19807,99.30789,1,119,Wilmington,DE,5755,2164,65.40%,176.0853,918,18.419069,-66.062319,San Juan,PR,San Juan
10023,99.29218,1,120,New York,NY,51494,11604,73.32%,162.0156,919,18.410462,-66.060533,San Juan,PR,San Juan
20036,99.27712,1,121,Washington,DC,3352,374,83.74%,143.8242,920,18.406808,-66.091885,San Juan,PR,San Juan
1451,99.2753,1,122,Harvard,MA,3313,1457,75.85%,157.0009,921,18.390429,-66.066124,San Juan,PR,San Juan
7920,99.26969,1,123,Basking Ridge,NJ,17129,6477,66.86%,172.1037,922,18.410462,-66.060533,San Juan,PR,San Juan
60611,99.25861,1,124,Chicago,IL,23272,5584,73.46%,160.4883,923,18.410775,-66.036708,San Juan,PR,San Juan
2459,99.24898,1,125,Newton Center,MA,11790,4518,73.54%,160.147,924,18.396392,-66.01146,San Juan,PR,San Juan
19066,99.24465,1,126,Merion Station,PA,3951,1526,76.69%,154.3151,925,18.401055,-66.049773,San Juan,PR,San Juan
60091,99.2386,1,127,Wilmette,IL,18124,7640,72.89%,160.5654,926,18.369376,-66.062804,San Juan,PR,San Juan
66211,99.23294,1,128,Leawood,KS,2465,971,66.65%,170.9177,927,18.385174,-66.071959,San Juan,PR,San Juan
48301,99.22941,1,129,Bloomfield Hills,MI,10413,4460,68.29%,167.7311,928,18.410462,-66.060533,San Juan,PR,San Juan
77024,99.22011,1,130,Houston,TX,23477,9133,68.02%,167.6866,929,18.410462,-66.060533,San Juan,PR,San Juan
60606,99.21332,1,131,Chicago,IL,1273,350,80.60%,145.9438,930,18.410462,-66.060533,San Juan,PR,San Juan
63131,99.20985,1,132,Saint Louis,MO,11381,4971,67.85%,167.5166,931,18.410462,-66.060533,San Juan,PR,San Juan
90274,99.20181,1,133,Palos Verdes Peninsula,CA,17933,7617,66.21%,170.2979,933,18.410462,-66.060533,San Juan,PR,San Juan
19041,99.19572,1,134,Haverford,PA,4241,1422,73.17%,158.2798,934,18.34487,-66.166014,Fort Buchanan,PR,Bayamon
6903,99.1918,1,135,Stamford,CT,10066,4222,68.32%,166.3712,935,18.410462,-66.060533,San Juan,PR,San Juan
19421,99.18901,1,,Birchrunville,PA,62,33,75.81%,153.4351,936,18.410462,-66.060533,San Juan,PR,San Juan
6831,99.18604,1,136,Greenwich,CT,10758,4109,56.83%,185.2621,937,18.410462,-66.060533,San Juan,PR,San Juan
22181,99.18039,1,137,Vienna,VA,9842,4085,68.49%,165.1355,938,18.410462,-66.060533,San Juan,PR,San Juan
35223,99.17561,1,138,Birmingham,AL,7558,3249,74.48%,154.6564,939,18.410462,-66.060533,San Juan,PR,San Juan
6490,99.17271,1,139,Southport,CT,3002,1164,61.73%,176.5561,940,18.410462,-66.060533,San Juan,PR,San Juan
94705,99.16934,1,140,Berkeley,CA,9252,2626,76.35%,151.1991,949,18.431911,-66.199692,Toa Baja,PR,Toa Baja
11797,99.16505,1,141,Woodbury,NY,6411,2317,58.01%,182.5436,950,18.457761,-66.196503,Toa Baja,PR,Toa Baja
7458,99.16124,1,142,Saddle River,NJ,7482,3207,60.10%,178.9268,951,18.457761,-66.196503,Toa Baja,PR,Toa Baja
20004,99.15899,1,143,Washington,DC,674,118,68.99%,163.45,952,18.457761,-66.196503,Sabana Seca,PR,Toa Baja
92625,99.15588,1,144,Corona del Mar,CA,10728,3493,64.71%,170.4104,953,18.356795,-66.25701,Toa Alta,PR,Toa Alta
11020,99.15217,1,145,Great Neck,NY,2773,1178,67.22%,166.0482,954,18.358939,-66.258108,Toa Alta,PR,Toa Alta
20194,99.14893,1,146,Reston,VA,9042,3437,75.03%,152.3524,955,18.410462,-66.060533,San Juan,PR,San Juan
22957,99.14643,1,,Montpelier Station,VA,28,14,57.14%,183.064,956,18.326702,-66.174176,Bayamon,PR,Bayamon
35649,99.14642,1,,Mooresville,AL,46,17,60.87%,176.6306,957,18.366645,-66.183907,Bayamon,PR,Bayamon
6877,99.14211,1,147,Ridgefield,CT,15682,6638,65.88%,167.1361,958,18.34487,-66.166014,Bayamon,PR,Bayamon
7928,99.13438,1,148,Chatham,NJ,12420,5073,66.88%,165.3892,959,18.387058,-66.159044,Bayamon,PR,Bayamon
10526,99.13068,1,149,Goldens Bridge,NY,1094,455,70.02%,159.4004,960,18.34487,-66.166014,Bayamon,PR,Bayamon
10017,99.12652,1,150,New York,NY,14064,2742,73.99%,152.3851,961,18.413195,-66.168651,Bayamon,PR,Bayamon
60305,99.12067,1,151,River Forest,IL,7237,2948,69.70%,159.7299,962,18.437644,-66.140407,Catano,PR,Catano
10128,99.10585,1,152,New York,NY,46757,12049,73.83%,152.0177,963,18.443217,-66.139293,Catano,PR,Catano
6612,99.09166,1,153,Easton,CT,4939,2079,59.55%,176.5979,965,18.428784,-66.11539,Guaynabo,PR,Guaynabo
10527,99.09011,1,154,Granite Springs,NY,704,312,71.59%,155.4841,966,18.396815,-66.114889,Guaynabo,PR,Guaynabo
37350,99.08952,1,155,Lookout Mountain,TN,1408,606,71.16%,155.6815,968,18.410462,-66.060533,Guaynabo,PR,San Juan
94305,99.08792,1,156,Stanford,CA,4498,1300,94.49%,115.4192,969,18.362322,-66.113729,Guaynabo,PR,Guaynabo
7417,99.08479,1,157,Franklin Lakes,NJ,6885,2952,52.94%,186.8953,970,18.359143,-66.112295,Guaynabo,PR,Guaynabo
76092,99.07948,1,158,Southlake,TX,12412,5892,58.71%,176.8934,971,18.30942,-66.113606,Guaynabo,PR,Guaynabo
11765,99.07595,1,,Mill Neck,NY,480,187,52.08%,187.9767,975,18.410462,-66.060533,San Juan,PR,San Juan
12507,99.07578,1,,Barrytown,NY,170,11,68.82%,159.0996,976,18.338133,-65.989229,Trujillo Alto,PR,Trujillo Alto
7979,99.07565,1,,Pottersville,NJ,260,137,66.92%,162.3686,977,18.337004,-65.990099,Trujillo Alto,PR,Trujillo Alto
94941,99.06966,1,159,Mill Valley,CA,21599,7359,71.53%,154.0889,978,18.337004,-65.990099,Saint Just Contract,PR,Trujillo Alto
66209,99.06036,1,160,Leawood,KS,12276,5289,67.62%,160.5092,979,18.410462,-66.060533,Carolina,PR,San Juan
90266,99.05013,1,161,Manhattan Beach,CA,24974,8449,67.61%,160.4229,981,18.410462,-66.060533,Carolina,PR,San Juan
20124,99.04073,1,162,Clifton,VA,9298,4075,65.43%,162.8694,982,18.410462,-66.060533,Carolina,PR,San Juan
7620,99.03786,1,163,Alpine,NJ,1129,450,61.38%,169.7984,983,18.413452,-65.977659,Carolina,PR,Carolina
98222,99.03754,1,,Blakely Island,WA,33,9,81.82%,133.7204,984,18.393355,-65.972495,Carolina,PR,Carolina
7450,99.03304,1,164,Ridgewood,NJ,16407,6825,66.75%,159.3284,985,18.345741,-65.93888,Carolina,PR,Carolina
75093,99.02061,1,165,Plano,TX,28861,11991,64.33%,163.2552,986,18.393355,-65.972495,Carolina,PR,Carolina
94304,99.01231,1,166,Palo Alto,CA,1407,410,79.39%,136.9737,987,18.373466,-65.959932,Carolina,PR,Carolina
10014,99.0041,1,167,New York,NY,28445,4763,74.39%,145.5058,988,18.393355,-65.972495,Carolina,PR,Carolina
38139,98.9938,1,168,Germantown,TN,9077,4241,65.81%,160.1039,1001,42.140549,-72.788661,Agawam,MA,Hampden
18357,98.99128,1,,Skytop,PA,93,10,43.01%,199.1972,1002,42.367092,-72.464571,Amherst,MA,Hampshire
7760,98.98946,1,169,Rumson,NJ,6554,2560,58.85%,171.9023,1003,42.369562,-72.63599,Amherst,MA,Hampshire
48304,98.98427,1,170,Bloomfield Hills,MI,12380,4994,64.81%,161.5095,1004,42.384494,-72.513183,Amherst,MA,Hampshire
94549,98.97626,1,171,Lafayette,CA,16806,6806,66.64%,158.2915,1005,42.32916,-72.139465,Barre,MA,Worcester
2461,98.97039,1,172,Newton Highlands,MA,4538,1861,72.79%,146.6643,1007,42.280267,-72.402056,Belchertown,MA,Hampshire
22207,98.96333,1,173,Arlington,VA,21227,7606,70.52%,150.4577,1008,42.177833,-72.958359,Blandford,MA,Hampden
92091,98.95721,1,174,Rancho Santa Fe,CA,1044,430,70.59%,149.6836,1009,42.206092,-72.340486,Bondsville,MA,Hampden
21210,98.95469,1,175,Baltimore,MD,8128,2461,74.38%,142.9991,1010,42.108585,-72.20448,Brimfield,MA,Hampden
90743,98.95244,1,,Surfside,CA,109,44,66.97%,155.6959,1011,42.294259,-72.952776,Chester,MA,Hampden
7930,98.95096,1,176,Chester,NJ,5264,2157,61.21%,165.5382,1012,42.392274,-72.825607,Chesterfield,MA,Hampshire
8540,98.9418,1,177,Princeton,NJ,28123,10147,71.39%,147.7614,1013,42.161492,-72.667341,Chicopee,MA,Hampden
60035,98.92835,1,178,Highland Park,IL,20830,8676,64.02%,160.2503,1014,42.170731,-72.604842,Chicopee,MA,Hampden
92130,98.91756,1,179,San Diego,CA,18529,7503,72.96%,144.7709,1020,42.177492,-72.562563,Chicopee,MA,Hampden
6269,98.91236,1,,Storrs Mansfield,CT,403,38,84.86%,124.222,1021,42.170731,-72.604842,Chicopee,MA,Hampden
30326,98.91203,1,180,Atlanta,GA,838,177,76.37%,138.8305,1022,42.193392,-72.55436,Chicopee,MA,Hampden
91011,98.90812,1,181,La Canada Flintridge,CA,13382,5847,63.67%,160.3615,1026,42.428617,-72.909841,Cummington,MA,Hampshire
50323,98.9043,1,182,Urbandale,IA,561,255,54.72%,175.6865,1027,42.368303,-72.768839,Easthampton,MA,Hampshire
92014,98.90118,1,183,Del Mar,CA,10782,3875,71.40%,146.9154,1028,42.062009,-72.49874,East Longmeadow,MA,Hampden
1772,98.89675,1,184,Southborough,MA,5343,2322,64.48%,158.6694,1029,42.190904,-73.051661,East Otis,MA,Berkshire
95120,98.88841,1,185,San Jose,CA,25071,10867,60.87%,164.8491,1030,42.189335,-72.79774,Feeding Hills,MA,Hampden
33146,98.87959,1,186,Miami,FL,7062,2701,67.79%,152.7787,1031,42.352554,-72.205724,Gilbertville,MA,Worcester
95480,98.87765,1,,Stewarts Point,CA,17,7,29.41%,218.4294,1032,42.443837,-72.819446,Goshen,MA,Hampshire
94065,98.87546,1,187,Redwood City,CA,7967,2939,66.00%,155.2827,1033,42.262285,-72.504086,Granby,MA,Hampshire
1719,98.87241,1,188,Boxborough,MA,3115,1296,72.13%,144.584,1034,42.112748,-72.952003,Granville,MA,Hampden
20814,98.86617,1,189,Bethesda,MD,19616,5903,75.42%,138.5311,1035,42.356804,-72.576613,Hadley,MA,Hampshire
2492,98.85716,1,190,Needham,MA,13178,5330,68.95%,149.4953,1036,42.067614,-72.417507,Hampden,MA,Hampden
94556,98.8506,1,191,Moraga,CA,10725,4409,67.39%,152.1105,1037,42.347856,-72.225251,Hardwick,MA,Worcester
1778,98.84517,1,192,Wayland,MA,9075,3754,68.48%,150.0876,1038,42.387269,-72.643081,Hatfield,MA,Hampshire
8858,98.84264,1,,Oldwick,NJ,138,63,58.70%,166.9125,1039,42.35641,-72.682127,Haydenville,MA,Hampshire
22213,98.84206,1,193,Arlington,VA,1943,690,74.11%,140.3029,1040,42.198291,-72.64207,Holyoke,MA,Hampden
81656,98.84145,1,,Woody Creek,CO,286,70,65.03%,155.9235,1041,42.170731,-72.604842,Holyoke,MA,Hampden
20862,98.8413,1,,Brinklow,MD,255,108,62.75%,159.1611,1050,42.313427,-72.903677,Huntington,MA,Hampshire
2421,98.83808,1,194,Lexington,MA,11480,4564,68.78%,148.61,1053,42.353838,-72.704385,Leeds,MA,Hampshire
93108,98.83241,1,195,Santa Barbara,CA,9129,3322,63.37%,157.8835,1054,42.474681,-72.467543,Leverett,MA,Franklin
7924,98.82852,1,196,Bernardsville,NJ,5102,2075,59.35%,164.6961,1056,42.173276,-72.627038,Ludlow,MA,Hampden
22102,98.82337,1,197,McLean,VA,13684,4711,72.64%,141.7635,1057,42.095323,-72.282063,Monson,MA,Hampden
94618,98.81625,1,198,Oakland,CA,12280,3694,74.09%,139.2476,1059,42.369562,-72.63599,North Amherst,MA,Hampshire
94904,98.81033,1,199,Greenbrae,CA,9273,3195,63.42%,157.6233,1060,42.415154,-72.76927,Northampton,MA,Hampshire
7028,98.80645,1,200,Glen Ridge,NJ,4846,2042,64.55%,155.148,1061,42.369562,-72.63599,Northampton,MA,Hampshire
22027,98.80481,1,201,Dunn Loring,VA,1125,394,63.73%,155.9954,1062,42.328838,-72.845227,Florence,MA,Hampshire
10536,98.8026,1,202,Katonah,NY,6951,2831,58.48%,165.0283,1063,42.317939,-72.640234,Northampton,MA,Hampshire
1742,98.79735,1,203,Concord,MA,12102,4451,66.10%,151.7509,1066,42.406697,-72.633901,North Hatfield,MA,Hampshire
59636,98.79404,1,,Fort Harrison,MT,24,6,70.83%,143.4489,1068,42.346144,-72.058847,Oakham,MA,Worcester
3750,98.79387,1,204,Etna,NH,600,255,77.33%,131.6557,1069,42.176131,-72.31457,Palmer,MA,Hampden
92660,98.78767,1,205,Newport Beach,CA,21992,7883,60.52%,160.5602,1070,42.448984,-72.958397,Plainfield,MA,Hampshire
78733,98.78012,1,206,Austin,TX,5472,2422,69.65%,144.5931,1071,42.177432,-72.864558,Russell,MA,Hampden
77056,98.77555,1,207,Houston,TX,11213,3334,64.50%,153.4652,1072,42.471562,-72.44017,Shutesbury,MA,Franklin
77059,98.76967,1,208,Houston,TX,10253,4714,71.24%,141.7608,1073,42.230008,-72.728463,Southampton,MA,Hampshire
1921,98.76546,1,209,Boxford,MA,5016,2253,62.82%,156.2464,1074,42.375998,-72.149388,South Barre,MA,Worcester
16155,98.76405,1,,Villa Maria,PA,122,5,18.85%,231.9172,1075,42.24984,-72.58152,South Hadley,MA,Hampshire
25866,98.76401,1,,Lochgelly,WV,37,12,56.76%,166.4679,1077,42.066644,-72.541205,Southwick,MA,Hampden
8502,98.76075,1,210,Belle Mead,NJ,11833,5331,61.18%,158.8015,1079,42.192892,-72.329574,Thorndike,MA,Hampden
98040,98.75327,1,211,Mercer Island,WA,15424,6266,69.10%,144.9213,1080,42.179805,-72.517813,Three Rivers,MA,Hampden
94306,98.74417,1,212,Palo Alto,CA,17766,6148,72.79%,138.5402,1081,42.061948,-72.213598,Wales,MA,Hampden
10706,98.73749,1,213,Hastings on Hudson,NY,6600,2522,63.61%,154.2563,1082,42.377471,-72.548549,Ware,MA,Hampshire
77027,98.73258,1,214,Houston,TX,11252,2926,69.53%,143.9118,1083,42.204027,-72.199439,Warren,MA,Worcester
19437,98.72939,1,,Gwynedd Valley,PA,381,164,73.75%,136.4467,1084,42.390303,-72.870857,West Chesterfield,MA,Hampshire
92861,98.72816,1,215,Villa Park,CA,4117,1718,57.69%,163.9417,1085,42.14869,-72.501887,Westfield,MA,Hampden
33158,98.72584,1,216,Miami,FL,4298,1860,60.56%,158.8289,1086,42.173428,-72.847964,Westfield,MA,Hampden
60010,98.71727,1,217,Barrington,IL,26906,11661,59.10%,161.2232,1088,42.390583,-72.646894,West Hatfield,MA,Hampshire
21029,98.70856,1,218,Clarksville,MD,4828,2128,64.17%,152.4086,1089,42.125793,-72.645334,West Springfield,MA,Hampden
3755,98.70599,1,219,Hanover,NH,4570,1512,77.64%,129.1817,1090,42.170731,-72.604842,West Springfield,MA,Hampden
2420,98.70203,1,220,Lexington,MA,9825,3910,69.34%,143.2489,1092,42.202887,-72.229025,West Warren,MA,Worcester
60015,98.6944,1,221,Deerfield,IL,17995,7509,66.12%,148.6257,1093,42.442673,-72.652511,Whately,MA,Franklin
80016,98.68814,1,222,Aurora,CO,4746,2184,62.12%,155.4828,1094,42.358201,-72.140846,Wheelwright,MA,Worcester
66220,98.68657,1,223,Lenexa,KS,1024,460,62.40%,154.068,1095,42.125974,-72.489988,Wilbraham,MA,Hampden
12429,98.68627,1,,Esopus,NY,15,7,0%,261.5213,1096,42.413069,-72.821653,Williamsburg,MA,Hampshire
19072,98.68438,1,224,Narberth,PA,6883,2571,71.20%,138.6801,1097,42.161743,-72.845912,Woronoco,MA,Hampden
94939,98.68105,1,225,Larkspur,CA,5264,1652,66.72%,146.1688,1098,42.40494,-72.896133,Worthington,MA,Hampshire
30005,98.675,1,226,Alpharetta,GA,16794,7248,68.91%,142.3506,1101,42.170731,-72.604842,Springfield,MA,Hampden
2445,98.66527,1,227,Brookline,MA,18688,6199,75.25%,131.385,1102,42.170731,-72.604842,Springfield,MA,Hampden
10006,98.65981,1,228,New York,NY,1174,230,70.95%,138.7808,1103,42.103044,-72.590783,Springfield,MA,Hampden
30306,98.65487,1,229,Atlanta,GA,16821,3614,74.12%,133.1673,1104,42.128605,-72.567966,Springfield,MA,Hampden
7901,98.64594,1,230,Summit,NJ,15710,6100,61.73%,154.5021,1105,42.099793,-72.577732,Springfield,MA,Hampden
1720,98.63803,1,231,Acton,MA,13148,5399,69.14%,141.6876,1106,42.049194,-72.567882,Longmeadow,MA,Hampden
90265,98.6308,1,232,Malibu,CA,13199,4697,59.00%,159.0055,1107,42.126237,-72.586733,Springfield,MA,Hampden
92602,98.62663,1,233,Irvine,CA,1935,804,64.13%,149.8928,1108,42.080594,-72.558081,Springfield,MA,Hampden
33480,98.62337,1,234,Palm Beach,FL,9997,3178,52.48%,169.8115,1109,42.119293,-72.548981,Springfield,MA,Hampden
90290,98.6195,1,235,Topanga,CA,4067,1319,60.98%,154.9362,1111,42.170731,-72.604842,Springfield,MA,Hampden
48009,98.61438,1,236,Birmingham,MI,14583,5119,67.14%,144.257,1114,42.170731,-72.604842,Springfield,MA,Hampden
94526,98.60411,1,237,Danville,CA,22822,9653,58.05%,159.7417,1115,42.102894,-72.591633,Springfield,MA,Hampden
2114,98.59532,1,238,Boston,MA,9223,1570,70.74%,137.7975,1116,42.170731,-72.604842,Longmeadow,MA,Hampden
22308,98.59038,1,239,Alexandria,VA,8804,3679,67.40%,142.9429,1118,42.093894,-72.523227,Springfield,MA,Hampden
63105,98.5852,1,240,Saint Louis,MO,10017,3022,70.30%,137.9152,1119,42.124943,-72.526705,Springfield,MA,Hampden
10501,98.58232,1,,Amawalk,NY,468,208,58.33%,158.519,1128,42.094616,-72.487229,Springfield,MA,Hampden
1467,98.58216,1,,Still River,MA,127,40,70.08%,138.2264,1129,42.124485,-72.489479,Springfield,MA,Hampden
7059,98.57956,1,241,Warren,NJ,9366,3917,58.25%,158.5648,1133,42.170731,-72.604842,Springfield,MA,Hampden
55424,98.57519,1,242,Minneapolis,MN,6541,2786,70.54%,137.3843,1138,42.170731,-72.604842,Springfield,MA,Hampden
10016,98.56199,1,243,New York,NY,41544,7973,68.79%,140.1747,1139,42.170731,-72.604842,Springfield,MA,Hampden
1740,98.54984,1,244,Bolton,MA,2768,1193,67.30%,142.4852,1144,42.101796,-72.59151,Springfield,MA,Hampden
10533,98.54768,1,245,Irvington,NY,5057,2067,61.24%,152.912,1151,42.150593,-72.51278,Indian Orchard,MA,Hampden
19096,98.54367,1,246,Wynnewood,PA,9569,3694,65.20%,146.0367,1152,42.170731,-72.604842,Springfield,MA,Hampden
37215,98.53667,1,247,Nashville,TN,15933,5449,70.13%,137.4549,1199,42.119943,-72.604983,Springfield,MA,Hampden
64113,98.53004,1,248,Kansas City,MO,8230,3233,75.72%,127.8127,1201,42.479475,-73.24807,Pittsfield,MA,Berkshire
20037,98.52589,1,249,Washington,DC,6882,1006,75.88%,127.5276,1202,42.3929,-73.228483,Pittsfield,MA,Berkshire
78738,98.52341,1,250,Austin,TX,2135,892,63.23%,149.273,1203,42.3929,-73.228483,Pittsfield,MA,Berkshire
7733,98.52002,1,251,Holmdel,NJ,10205,4262,55.68%,162.2627,1220,42.385595,-73.172166,Adams,MA,Berkshire
20171,98.51144,1,252,Herndon,VA,21066,9296,67.32%,142.1793,1222,42.185969,-73.318695,Ashley Falls,MA,Berkshire
11753,98.50344,1,253,Jericho,NY,8062,3391,61.21%,152.3942,1223,42.3418,-73.103468,Becket,MA,Berkshire
20777,98.50066,1,254,Highland,MD,2028,821,55.18%,162.6968,1224,42.3929,-73.228483,Berkshire,MA,Berkshire
20880,98.50002,1,,Washington Grove,MD,343,141,76.09%,126.3979,1225,42.482125,-73.127483,Cheshire,MA,Berkshire
45174,98.49956,1,255,Terrace Park,OH,1403,648,70.71%,135.6727,1226,42.470296,-73.08895,Dalton,MA,Berkshire
10590,98.49787,1,256,South Salem,NY,4673,2057,62.40%,149.7411,1227,42.516145,-73.092852,Dalton,MA,Berkshire
19025,98.49564,1,257,Dresher,PA,3492,1538,67.70%,140.3395,1229,42.279292,-73.343545,Glendale,MA,Berkshire
19087,98.48898,1,258,Wayne,PA,20784,7760,68.75%,138.1872,1230,42.299392,-73.26665,Great Barrington,MA,Berkshire
6092,98.48254,1,259,West Simsbury,CT,2676,1236,65.81%,143.1573,1235,42.29237,-73.22164,Hinsdale,MA,Berkshire
7934,98.48149,1,260,Gladstone,NJ,1115,466,59.73%,153.4442,1236,42.291299,-73.358798,Housatonic,MA,Berkshire
1718,98.48111,1,,Village of Nagog Woods,MA,302,117,76.82%,123.9108,1237,42.487569,-73.235048,Lanesboro,MA,Berkshire
48374,98.47913,1,261,Novi,MI,6915,3225,58.96%,154.5636,1238,42.369856,-73.267465,Lee,MA,Berkshire
18977,98.4765,1,262,Washington Crossing,PA,2654,1138,64.47%,145.0246,1240,42.459202,-73.219858,Lenox,MA,Berkshire
60558,98.4735,1,263,Western Springs,IL,8312,3724,65.94%,142.3545,1242,42.338594,-73.250891,Lenox Dale,MA,Berkshire
1890,98.46716,1,264,Winchester,MA,14800,5831,64.91%,144.1315,1243,42.356088,-73.010448,Middlefield,MA,Hampshire
10502,98.46217,1,265,Ardsley,NY,3313,1392,59.70%,153.086,1244,42.122827,-73.253983,Mill River,MA,Berkshire
19333,98.45978,1,266,Devon,PA,5432,1853,71.69%,132.4324,1245,42.18669,-73.206498,Monterey,MA,Berkshire
80111,98.4537,1,267,Englewood,CO,16688,7068,67.90%,138.7808,1247,42.426974,-73.18632,North Adams,MA,Berkshire
76034,98.44569,1,268,Colleyville,TX,12535,5831,56.23%,158.5844,1252,42.198648,-73.446234,North Egremont,MA,Berkshire
31411,98.44061,1,269,Savannah,GA,5950,2709,67.11%,139.602,1253,42.213156,-73.090434,Otis,MA,Berkshire
7401,98.43779,1,270,Allendale,NJ,4359,1783,62.31%,147.7549,1254,42.233105,-73.238358,Richmond,MA,Berkshire
19010,98.4328,1,271,Bryn Mawr,PA,13772,4756,63.81%,145.0861,1255,42.148975,-73.14861,Sandisfield,MA,Berkshire
7946,98.42848,1,272,Millington,NJ,1975,836,58.94%,153.4835,1256,42.367341,-73.128528,Savoy,MA,Berkshire
77382,98.42561,1,273,Spring,TX,8520,3973,65.16%,142.65,1257,42.314564,-73.267694,Sheffield,MA,Berkshire
48025,98.42044,1,274,Franklin,MI,10294,4187,64.80%,142.9377,1258,42.128075,-73.36089,South Egremont,MA,Berkshire
10570,98.41544,1,275,Pleasantville,NY,7898,3236,59.79%,151.3233,1259,42.198712,-73.278543,Southfield,MA,Berkshire
75024,98.40967,1,276,Plano,TX,13147,5265,66.65%,139.4608,1260,42.286586,-73.313274,South Lee,MA,Berkshire
95014,98.39587,1,277,Cupertino,CA,37092,14705,65.03%,142.242,1262,42.304604,-73.330001,Stockbridge,MA,Berkshire
60069,98.38433,1,278,Lincolnshire,IL,4974,2088,57.60%,154.9336,1263,42.3929,-73.228483,Stockbridge,MA,Berkshire
8836,98.38225,1,279,Martinsville,NJ,2650,1156,55.62%,157.6939,1264,42.220001,-73.197865,Tyringham,MA,Berkshire
3233,98.38146,1,,Elkins,NH,175,69,72.57%,128.4665,1266,42.360482,-73.265354,West Stockbridge,MA,Berkshire
90254,98.37722,1,280,Hermosa Beach,CA,15300,3666,67.61%,136.8416,1267,42.642075,-73.257699,Williamstown,MA,Berkshire
55439,98.37129,1,281,Minneapolis,MN,6307,2671,66.58%,138.5991,1270,42.443726,-73.116127,Windsor,MA,Berkshire
60192,98.36923,1,282,Hoffman Estates,IL,1177,487,57.26%,154.6302,1301,42.601335,-72.623619,Greenfield,MA,Franklin
95041,98.3689,1,,Mount Hermon,CA,43,19,86.05%,104.9127,1302,42.522178,-72.624164,Greenfield,MA,Franklin
7090,98.36279,1,283,Westfield,NJ,22217,9097,61.93%,146.3662,1330,42.562391,-72.738152,Ashfield,MA,Franklin
11023,98.35509,1,284,Great Neck,NY,5835,2407,62.06%,146.1204,1331,42.547302,-72.183903,Athol,MA,Worcester
94611,98.34581,1,285,Oakland,CA,27962,8935,66.81%,137.906,1337,42.62706,-72.642888,Bernardston,MA,Franklin
48323,98.33481,1,286,West Bloomfield,MI,12129,5236,58.12%,152.8493,1338,42.573832,-72.769487,Buckland,MA,Franklin
45384,98.33145,1,,Wilberforce,OH,123,51,82.11%,111.3461,1339,42.594252,-72.665507,Charlemont,MA,Franklin
66224,98.33035,1,287,Overland Park,KS,3816,1783,66.90%,137.5294,1340,42.681539,-72.822986,Colrain,MA,Franklin
60564,98.3243,1,288,Naperville,IL,18258,8483,62.17%,145.5973,1341,42.590824,-72.70976,Conway,MA,Franklin
91105,98.317,1,289,Pasadena,CA,8304,2702,63.23%,143.7196,1342,42.54723,-72.607679,Deerfield,MA,Franklin
91436,98.31201,1,290,Encino,CA,9912,3942,56.77%,154.6315,1343,42.642666,-72.986231,Drury,MA,Berkshire
7670,98.30677,1,291,Tenafly,NJ,9173,3881,62.15%,145.1815,1344,42.627072,-72.553654,Erving,MA,Franklin
33149,98.30222,1,292,Key Biscayne,FL,7448,2943,64.90%,140.3356,1346,42.618011,-72.788896,Heath,MA,Franklin
44022,98.29675,1,293,Chagrin Falls,OH,12439,5156,63.78%,142.259,1347,42.556558,-72.518104,Lake Pleasant,MA,Franklin
2446,98.28738,1,294,Brookline,MA,21701,5839,78.25%,117.157,1349,42.621412,-72.705633,Turners Falls,MA,Franklin
6896,98.27987,1,295,Redding,CT,5655,2416,63.09%,143.2424,1350,42.721456,-72.976204,Monroe Bridge,MA,Franklin
48070,98.27714,1,296,Huntington Woods,MI,4328,1816,72.37%,127.1066,1351,42.548107,-72.48693,Montague,MA,Franklin
78732,98.27521,1,297,Austin,TX,2710,1082,65.20%,139.4307,1354,42.522178,-72.624164,Northfield,MA,Franklin
7869,98.27005,1,298,Randolph,NJ,16078,6741,59.06%,149.9438,1355,42.518718,-72.534371,New Salem,MA,Franklin
7481,98.26258,1,299,Wyckoff,NJ,11122,4656,56.63%,154.119,1360,42.614152,-72.528209,Northfield,MA,Franklin
11024,98.25826,1,300,Great Neck,NY,4608,1841,52.11%,161.8469,1364,42.578325,-72.556589,Orange,MA,Franklin
20197,98.25678,1,301,Waterford,VA,751,330,53.13%,160.0555,1366,42.459632,-72.182962,Petersham,MA,Worcester
93953,98.25553,1,302,Pebble Beach,CA,3823,1472,60.61%,147.0122,1367,42.683065,-72.715667,Rowe,MA,Franklin
66213,98.24994,1,303,Overland Park,KS,16535,6939,66.86%,136.1643,1368,42.672182,-72.196376,Royalston,MA,Worcester
53122,98.24416,1,304,Elm Grove,WI,4502,1829,64.88%,139.4961,1369,42.522178,-72.624164,Shattuckville,MA,Franklin
48306,98.23888,1,305,Rochester,MI,14786,6649,59.04%,149.3763,1370,42.588812,-72.758781,Shelburne Falls,MA,Franklin
6525,98.23312,1,306,Woodbridge,CT,6139,2633,60.89%,146.0968,1373,42.464522,-72.682346,South Deerfield,MA,Franklin
7452,98.22934,1,307,Glen Rock,NJ,7714,3315,61.08%,145.5097,1375,42.565346,-72.70094,Sunderland,MA,Franklin
46814,98.22585,1,308,Fort Wayne,IN,4967,2284,56.51%,153.2847,1376,42.654878,-72.718123,Turners Falls,MA,Franklin
2116,98.2205,1,309,Boston,MA,14520,3085,69.63%,130.5678,1378,42.667059,-72.339655,Warwick,MA,Franklin
77030,98.21427,1,310,Houston,TX,8193,2515,75.70%,120.0573,1379,42.581007,-72.437179,Wendell,MA,Franklin
18035,98.21201,1,,Cherryville,PA,47,21,74.47%,122.0409,1380,42.553431,-72.392694,Wendell Depot,MA,Franklin
78731,98.20721,1,311,Austin,TX,17444,5967,71.15%,127.6714,1420,42.583689,-71.816767,Fitchburg,MA,Worcester
75022,98.20007,1,312,Flower Mound,TX,8552,3895,58.34%,149.6352,1430,42.654906,-71.920942,Ashburnham,MA,Worcester
2467,98.1961,1,313,Chestnut Hill,MA,5916,2090,73.44%,123.5944,1431,42.446396,-71.459405,Ashby,MA,Middlesex
11577,98.19218,1,314,Roslyn Heights,NY,8349,3396,57.52%,150.9925,1432,42.446396,-71.459405,Ayer,MA,Middlesex
7704,98.18887,1,315,Fair Haven,NJ,3747,1651,61.76%,143.5222,1436,42.601427,-72.083838,Baldwinville,MA,Worcester
40059,98.1858,1,316,Prospect,KY,7391,3248,61.72%,143.4607,1438,42.551681,-72.029434,East Templeton,MA,Worcester
78257,98.18333,1,317,San Antonio,TX,1632,704,44.55%,173.0452,1440,42.582529,-72.025884,Gardner,MA,Worcester
4110,98.18264,1,318,Cumberland Foreside,ME,856,386,62.62%,141.8236,1441,42.364807,-71.896868,Westminster,MA,Worcester
19312,98.18027,1,319,Berwyn,PA,7785,3136,61.36%,143.9445,1450,42.446396,-71.459405,Groton,MA,Middlesex
10010,98.17231,1,320,New York,NY,21221,4819,71.23%,126.9,1451,42.500187,-71.575864,Harvard,MA,Worcester
6001,98.16338,1,321,Avon,CT,11327,4509,62.02%,142.6879,1452,42.483895,-72.011516,Hubbardston,MA,Worcester
7627,98.15937,1,322,Demarest,NJ,3251,1393,58.94%,147.9471,1453,42.471316,-71.837509,Leominster,MA,Worcester
2052,98.15637,1,323,Medfield,MA,7702,3316,62.10%,142.4316,1460,42.446396,-71.459405,Littleton,MA,Middlesex
20148,98.1536,1,324,Ashburn,VA,2347,1067,60.84%,144.5395,1462,42.583322,-71.752266,Lunenburg,MA,Worcester
48331,98.14874,1,325,Farmington,MI,15442,6426,61.85%,142.7703,1463,42.446396,-71.459405,Pepperell,MA,Middlesex
10011,98.13351,1,326,New York,NY,39951,6704,68.57%,130.9993,1464,42.446396,-71.459405,Shirley,MA,Middlesex
92121,98.12177,1,327,San Diego,CA,2880,987,71.63%,125.3374,1467,42.487056,-71.613078,Still River,MA,Worcester
22314,98.11541,1,328,Alexandria,VA,20298,5413,68.05%,131.4478,1468,42.555059,-72.072285,Templeton,MA,Worcester
44236,98.10563,1,329,Hudson,OH,15311,6871,63.99%,138.3807,1469,42.446396,-71.459405,Townsend,MA,Middlesex
77401,98.09846,1,330,Bellaire,TX,10780,4343,65.94%,134.8515,1470,42.446396,-71.459405,Groton,MA,Middlesex
6073,98.09463,1,331,South Glastonbury,CT,3219,1344,60.73%,143.7523,1471,42.446396,-71.459405,Groton,MA,Middlesex
75082,98.09095,1,332,Richardson,TX,10176,4382,63.35%,139.1391,1472,42.446396,-71.459405,West Groton,MA,Middlesex
60521,98.08147,1,333,Hinsdale,IL,24371,10135,57.13%,149.83,1473,42.549489,-71.913219,Westminster,MA,Worcester
19106,98.07278,1,334,Philadelphia,PA,7309,1607,73.84%,121.0027,1474,42.446396,-71.459405,West Townsend,MA,Middlesex
46033,98.06577,1,335,Carmel,IN,18231,8498,64.13%,137.6942,1475,42.661612,-72.047876,Winchendon,MA,Worcester
11598,98.05838,1,336,Woodmere,NY,8721,3646,58.62%,147.0958,1477,42.364807,-71.896868,Winchendon Springs,MA,Worcester
28765,98.05596,1,,Penland,NC,31,18,67.74%,131.2477,1501,42.184835,-71.947184,Auburn,MA,Worcester
30338,98.05009,1,337,Atlanta,GA,21395,8011,66.27%,133.353,1503,42.3129,-71.841656,Berlin,MA,Worcester
21738,98.04374,1,338,Glenwood,MD,1724,778,59.16%,145.5202,1504,42.114078,-71.799785,Blackstone,MA,Worcester
30309,98.03915,1,339,Atlanta,GA,15018,2418,65.79%,134.0774,1505,42.300037,-71.943458,Boylston,MA,Worcester
78739,98.03359,1,340,Austin,TX,5183,2405,64.79%,135.7498,1506,42.19169,-72.105011,Brookfield,MA,Worcester
37027,98.02567,1,341,Brentwood,TN,23732,10265,62.62%,139.4582,1507,42.13277,-71.972627,Charlton,MA,Worcester
75019,98.01315,1,342,Coppell,TX,21851,9844,62.54%,139.5471,1508,42.109748,-72.079455,Charlton City,MA,Worcester
48104,98.00198,1,343,Ann Arbor,MI,18816,5635,75.91%,116.4352,1509,42.364807,-71.896868,Charlton Depot,MA,Worcester
94105,97.99634,1,344,San Francisco,CA,1803,317,67.39%,131.0163,1510,42.413972,-71.687523,Clinton,MA,Worcester
94025,97.98804,1,345,Menlo Park,CA,28450,9416,60.92%,142.0642,1515,42.205311,-72.049907,East Brookfield,MA,Worcester
81430,97.98021,1,,Placerville,CO,67,20,83.58%,103.0101,1516,42.113076,-71.891139,Douglas,MA,Worcester
95033,97.97816,1,346,Los Gatos,CA,7361,2772,55.51%,151.2893,1517,42.364807,-71.896868,East Princeton,MA,Worcester
2138,97.97018,1,347,Cambridge,MA,21761,5631,79.24%,110.334,1518,42.106405,-72.114045,Fiskdale,MA,Worcester
37684,97.96409,1,,Mountain Home,TN,401,7,27.50%,199.1972,1519,42.203944,-71.682862,Grafton,MA,Worcester
75025,97.95724,1,348,Plano,TX,24539,11129,64.56%,135.0424,1520,42.336791,-71.845316,Holden,MA,Worcester
21405,97.95039,1,,Annapolis,MD,416,195,65.38%,133.5975,1521,42.061063,-72.163991,Holland,MA,Hampden
7310,97.94895,1,349,Jersey City,NJ,4839,1434,76.50%,114.415,1522,42.264629,-71.795442,Jefferson,MA,Worcester
21036,97.94725,1,350,Dayton,MD,1344,613,60.94%,141.1149,1523,42.427188,-71.91177,Lancaster,MA,Worcester
77345,97.94303,1,351,Kingwood,TX,14007,6549,61.48%,139.9917,1524,42.238192,-72.012379,Leicester,MA,Worcester
49434,97.93918,1,,Macatawa,MI,48,7,85.42%,98.7068,1525,42.364807,-71.896868,Linwood,MA,Worcester
24327,97.93916,1,,Emory,VA,19,10,100%,73.5525,1526,42.364807,-71.896868,Manchaug,MA,Worcester
98112,97.93479,1,352,Seattle,WA,15890,4429,67.74%,129.0719,1527,42.255642,-71.819961,Millbury,MA,Worcester
92679,97.92512,1,353,Trabuco Canyon,CA,19389,8642,52.46%,155.3481,1529,42.124662,-71.846943,Millville,MA,Worcester
60657,97.90517,1,354,Chicago,IL,53232,9978,72.78%,120.1501,1531,42.320938,-72.128644,New Braintree,MA,Worcester
22205,97.88741,1,355,Arlington,VA,11560,4062,63.72%,135.738,1532,42.322118,-71.64282,Northborough,MA,Worcester
11530,97.8794,1,356,Garden City,NY,17597,7189,57.41%,146.4381,1534,42.207191,-71.856807,Northbridge,MA,Worcester
7641,97.87393,1,357,Haworth,NJ,2259,968,57.02%,147.105,1535,42.275382,-72.089338,North Brookfield,MA,Worcester
63141,97.86952,1,358,Saint Louis,MO,13858,5438,63.72%,135.2908,1536,42.407556,-71.860402,North Grafton,MA,Worcester
48230,97.86234,1,359,Grosse Pointe,MI,12315,4903,62.98%,136.4232,1537,42.166241,-71.891052,North Oxford,MA,Worcester
22646,97.85892,1,,Millwood,VA,60,18,56.67%,147.2985,1538,42.364807,-71.896868,North Uxbridge,MA,Worcester
78248,97.85648,1,360,San Antonio,TX,8859,3775,62.95%,136.4363,1540,42.109223,-71.855444,Oxford,MA,Worcester
99725,97.85403,1,,Ester,AK,118,36,46.61%,164.585,1541,42.451926,-71.880057,Princeton,MA,Worcester
55347,97.8499,1,361,Eden Prairie,MN,14864,6534,61.01%,139.7171,1542,42.220085,-71.914361,Rochdale,MA,Worcester
1810,97.8401,1,362,Andover,MA,20897,8594,62.51%,137.0626,1543,42.383516,-71.95463,Rutland,MA,Worcester
27614,97.83234,1,363,Raleigh,NC,7402,3303,59.52%,142.0812,1545,42.286992,-71.715313,Shrewsbury,MA,Worcester
30097,97.82609,1,364,Duluth,GA,15326,6674,61.63%,138.3519,1546,42.364807,-71.896868,Shrewsbury,MA,Worcester
87122,97.81458,1,365.5,Albuquerque,NM,8724,3790,64.58%,133.2366,1550,42.129251,-72.031155,Southbridge,MA,Worcester
95032,97.81458,1,365.5,Los Gatos,CA,17878,6461,56.76%,146.7088,1560,42.176544,-71.681912,South Grafton,MA,Worcester
91302,97.80305,1,367,Calabasas,CA,15407,6524,56.54%,146.8945,1561,42.443539,-71.686137,South Lancaster,MA,Worcester
2460,97.79689,1,368,Newtonville,MA,7052,2354,65.60%,131.1967,1562,42.254837,-72.065612,Spencer,MA,Worcester
2466,97.79362,1,369,Auburndale,MA,4819,1650,63.62%,134.586,1564,42.366765,-71.939375,Sterling,MA,Worcester
45208,97.78877,1,370,Cincinnati,OH,12863,3834,69.23%,124.9242,1566,42.10273,-72.080996,Sturbridge,MA,Worcester
10803,97.78305,1,371,Pelham,NY,8002,3246,58.35%,143.5222,1568,42.175591,-71.603197,Upton,MA,Worcester
75013,97.77891,1,372,Allen,TX,7092,3312,63.41%,134.6396,1569,42.059736,-71.638438,Uxbridge,MA,Worcester
85045,97.77615,1,373,Phoenix,AZ,2945,1265,60.17%,139.7929,1570,42.1351,-71.994169,Webster,MA,Worcester
84717,97.77534,1,,Bryce Canyon,UT,44,20,90.91%,86.6285,1571,42.059189,-71.937037,Dudley,MA,Worcester
55391,97.77225,1,374,Wayzata,MN,11143,4440,55.69%,147.2737,1580,42.364807,-71.896868,Westborough,MA,Worcester
37205,97.76474,1,375,Nashville,TN,16308,5529,64.90%,131.2909,1581,42.255222,-71.845865,Westborough,MA,Worcester
33327,97.75809,1,376,Fort Lauderdale,FL,7871,3585,61.45%,137.23,1582,42.364807,-71.896868,Westborough,MA,Worcester
20833,97.75486,1,377,Brookeville,MD,3914,1756,57.64%,143.7039,1583,42.362783,-71.781215,West Boylston,MA,Worcester
6426,97.75311,1,378,Essex,CT,2471,813,61.03%,137.838,1585,42.235638,-72.172523,West Brookfield,MA,Worcester
92662,97.75171,1,379,Newport Beach,CA,2637,771,59.80%,139.8988,1586,42.364807,-71.896868,West Millbury,MA,Worcester
97034,97.74733,1,380,Lake Oswego,OR,13295,5488,64.15%,132.316,1588,42.166554,-71.899484,Whitinsville,MA,Worcester
22202,97.73996,1,381,Arlington,VA,13567,3093,71.70%,119.1511,1590,42.126575,-71.755193,Sutton,MA,Worcester
30022,97.72675,1,382,Alpharetta,GA,34537,14672,61.00%,137.5451,1601,42.265275,-71.879415,Worcester,MA,Worcester
55446,97.71509,1,383,Minneapolis,MN,7945,3338,60.43%,138.3297,1602,42.274595,-71.846966,Worcester,MA,Worcester
60565,97.70628,1,384,Naperville,IL,24129,10946,60.83%,137.621,1603,42.245442,-71.839257,Worcester,MA,Worcester
10003,97.68859,1,385,New York,NY,40319,7504,70.12%,121.4303,1604,42.247955,-71.76678,Worcester,MA,Worcester
94970,97.67737,1,386,Stinson Beach,CA,593,186,60.03%,138.7324,1605,42.288792,-71.796128,Worcester,MA,Worcester
94114,97.66973,1,387,San Francisco,CA,27211,4133,66.70%,127.2256,1606,42.311834,-71.794465,Worcester,MA,Worcester
20759,97.66196,1,388,Fulton,MD,1108,479,49.64%,156.6165,1607,42.226452,-71.792506,Worcester,MA,Worcester
8534,97.65959,1,389,Pennington,NJ,7593,3322,62.95%,133.659,1608,42.293501,-71.925696,Worcester,MA,Worcester
7041,97.65616,1,390,Millburn,NJ,4817,1923,64.87%,130.3023,1609,42.282565,-71.827685,Worcester,MA,Worcester
92037,97.6468,1,391,La Jolla,CA,29295,9500,67.75%,125.3165,1610,42.246483,-71.808915,Worcester,MA,Worcester
60062,97.63093,1,392,Northbrook,IL,28509,11710,59.99%,138.6317,1611,42.239392,-71.878716,Cherry Valley,MA,Worcester
7039,97.61799,1,393,Livingston,NJ,18675,7932,57.83%,142.025,1612,42.304675,-71.892875,Paxton,MA,Worcester
2332,97.61029,1,394,Duxbury,MA,9365,3964,59.62%,138.926,1613,42.293316,-71.801971,Worcester,MA,Worcester
6020,97.60764,1,,Canton Center,CT,246,113,60.57%,137.0992,1614,42.364807,-71.896868,Worcester,MA,Worcester
10964,97.60732,1,395,Palisades,NY,964,357,58.20%,141.0207,1615,42.364807,-71.896868,Worcester,MA,Worcester
30068,97.60101,1,396,Marietta,GA,22009,9313,62.19%,134.0852,1653,42.364807,-71.896868,Worcester,MA,Worcester
7922,97.59261,1,397,Berkeley Heights,NJ,8623,3442,52.04%,151.3298,1654,42.364807,-71.896868,Worcester,MA,Worcester
7045,97.58823,1,398,Montville,NJ,7358,2970,52.58%,150.3387,1655,42.364807,-71.896868,Worcester,MA,Worcester
7853,97.58383,1,399,Long Valley,NJ,8587,3736,55.97%,144.4741,1701,42.446396,-71.459405,Framingham,MA,Middlesex
1775,97.5804,1,400,Stow,MA,3962,1682,61.86%,134.0682,1702,42.446396,-71.459405,Framingham,MA,Middlesex
7739,97.57816,1,401,Little Silver,NJ,4199,1820,60.47%,136.0336,1703,42.446396,-71.459405,Framingham,MA,Middlesex
83014,97.57635,1,402,Wilson,WY,2408,767,60.80%,135.3536,1704,42.446396,-71.459405,Framingham,MA,Middlesex
6807,97.57435,1,403,Cos Cob,CT,4848,1943,58.52%,139.2228,1705,42.446396,-71.459405,Framingham,MA,Middlesex
22201,97.56754,1,404,Arlington,VA,19951,4499,74.01%,112.3294,1718,42.446396,-71.459405,Village Of Nagog Woods,MA,Middlesex
77019,97.55869,1,405,Houston,TX,12319,3274,59.03%,138.1349,1719,42.446396,-71.459405,Boxborough,MA,Middlesex
67230,97.55418,1,406,Wichita,KS,4094,1887,63.78%,129.9349,1720,42.446396,-71.459405,Acton,MA,Middlesex
6117,97.55017,1,407,West Hartford,CT,10511,3841,64.07%,129.3125,1721,42.446396,-71.459405,Ashland,MA,Middlesex
94404,97.54076,1,408,San Mateo,CA,23774,8654,59.34%,137.4405,1730,42.446396,-71.459405,Bedford,MA,Middlesex
19436,97.53412,1,,Gwynedd,PA,440,89,61.59%,133.3111,1731,42.446396,-71.459405,Hanscom Afb,MA,Middlesex
19317,97.5323,1,409,Chadds Ford,PA,6172,2680,60.26%,135.5249,1740,42.436043,-71.605916,Bolton,MA,Worcester
32963,97.52722,1,410,Vero Beach,FL,12326,4945,55.30%,144.0308,1741,42.446396,-71.459405,Carlisle,MA,Middlesex
78726,97.52275,1,411,Austin,TX,3992,1834,62.95%,130.6515,1742,42.446396,-71.459405,Concord,MA,Middlesex
94062,97.51649,1,412,Redwood City,CA,18817,6867,51.09%,151.0278,1745,42.293442,-71.502762,Fayville,MA,Worcester
75251,97.51104,1,413,Dallas,TX,1029,223,80.37%,100.4668,1746,42.446396,-71.459405,Holliston,MA,Middlesex
93645,97.51073,1,,O Neals,CA,119,59,52.94%,147.7052,1747,42.127515,-71.533138,Hopedale,MA,Worcester
15015,97.51044,1,414,Bradfordwoods,PA,933,396,60.88%,133.9087,1748,42.446396,-71.459405,Hopkinton,MA,Middlesex
21042,97.50373,1,415,Ellicott City,MD,23473,10212,61.33%,133.1006,1749,42.446396,-71.459405,Hudson,MA,Middlesex
14534,97.49158,1,416,Pittsford,NY,20845,8753,63.08%,130.0068,1752,42.446396,-71.459405,Marlborough,MA,Middlesex
7079,97.48298,1,417,South Orange,NJ,10420,3822,57.11%,140.2427,1754,42.446396,-71.459405,Maynard,MA,Middlesex
7632,97.47905,1,418,Englewood Cliffs,NJ,3921,1547,52.49%,148.0033,1756,42.100352,-71.546961,Mendon,MA,Worcester
78703,97.47399,1,419,Austin,TX,14531,4572,74.15%,110.6308,1757,42.147087,-71.528085,Milford,MA,Worcester
6430,97.46423,1,420,Fairfield,CT,20993,8373,56.76%,140.5971,1760,42.446396,-71.459405,Natick,MA,Middlesex
60201,97.45168,1,421,Evanston,IL,24775,8320,65.66%,125.2367,1770,42.446396,-71.459405,Sherborn,MA,Middlesex
2067,97.44172,1,422,Sharon,MA,11464,4953,63.08%,129.6119,1772,42.296842,-71.533229,Southborough,MA,Worcester
7640,97.43773,1,423,Harrington Park,NJ,3114,1352,58.45%,137.5896,1773,42.446396,-71.459405,Lincoln,MA,Middlesex
60422,97.4352,1,424,Flossmoor,IL,6126,2643,59.66%,135.3065,1775,42.446396,-71.459405,Stow,MA,Middlesex
60048,97.42838,1,425,Libertyville,IL,18735,7705,56.75%,140.2689,1776,42.446396,-71.459405,Sudbury,MA,Middlesex
90275,97.41496,1,426,Rancho Palos Verdes,CA,30129,12305,57.93%,138.2146,1778,42.446396,-71.459405,Wayland,MA,Middlesex
21131,97.40522,1,427,Phoenix,MD,5327,2346,57.11%,139.5811,1784,42.446396,-71.459405,Woodville,MA,Middlesex
94598,97.39855,1,428,Walnut Creek,CA,18977,7385,60.30%,133.8564,1801,42.488595,-71.157271,Woburn,MA,Middlesex
22033,97.38705,1,429,Fairfax,VA,22947,8351,64.69%,126.2762,1803,42.504844,-71.201539,Burlington,MA,Middlesex
92131,97.37538,1,430,San Diego,CA,19558,8229,62.67%,129.7296,1805,42.446396,-71.459405,Burlington,MA,Middlesex
29482,97.36963,1,431,Sullivans Island,SC,1377,485,64.71%,126.1246,1806,42.446396,-71.459405,Woburn,MA,Middlesex
33156,97.36353,1,432,Miami,FL,20871,8502,55.88%,141.1659,1807,42.446396,-71.459405,Woburn,MA,Middlesex
22302,97.3546,1,433,Alexandria,VA,11645,3469,67.52%,121.0445,1808,42.446396,-71.459405,Woburn,MA,Middlesex
2142,97.35107,1,434,Cambridge,MA,1183,369,89.26%,83.55172,1810,42.647991,-71.165685,Andover,MA,Essex
19707,97.34798,1,435,Hockessin,DE,10064,4306,57.96%,137.3202,1812,42.647191,-71.184202,Andover,MA,Essex
8535,97.34491,1,436,Millstone Township,NJ,1164,520,48.11%,154.187,1813,42.446396,-71.459405,Woburn,MA,Middlesex
6060,97.34417,1,437,North Granby,CT,1526,682,61.21%,131.5511,1815,42.446396,-71.459405,Woburn,MA,Middlesex
11791,97.33917,1,438,Syosset,NY,16699,7002,56.07%,140.2885,1821,42.446396,-71.459405,Billerica,MA,Middlesex
94010,97.32643,1,439,Burlingame,CA,29708,10504,53.95%,143.9471,1822,42.446396,-71.459405,Billerica,MA,Middlesex
7711,97.3179,1,440,Allenhurst,NJ,1341,500,57.12%,138.2839,1824,42.446396,-71.459405,Chelmsford,MA,Middlesex
20861,97.31721,1,441,Ashton,MD,1169,474,54.83%,142.2237,1826,42.446396,-71.459405,Dracut,MA,Middlesex
94539,97.30841,1,442,Fremont,CA,30918,12795,56.42%,139.449,1827,42.446396,-71.459405,Dunstable,MA,Middlesex
28277,97.29379,1,443,Charlotte,NC,22376,9468,60.56%,132.2938,1830,42.792639,-71.072501,Haverhill,MA,Essex
1945,97.28361,1,444,Marblehead,MA,14724,5692,61.50%,130.6188,1831,42.771095,-71.122054,Haverhill,MA,Essex
7974,97.27743,1,445,New Providence,NJ,7770,3173,57.08%,138.0106,1832,42.789627,-71.126562,Haverhill,MA,Essex
48069,97.2748,1,446,Pleasant Ridge,MI,1809,690,65.78%,123.002,1833,42.72377,-70.981298,Georgetown,MA,Essex
60540,97.26697,1,447,Naperville,IL,26743,11316,60.67%,131.7917,1834,42.751074,-71.021437,Groveland,MA,Essex
94127,97.25537,1,448,San Francisco,CA,15511,5030,54.23%,142.8828,1835,42.752844,-71.084301,Haverhill,MA,Essex
6070,97.24844,1,449,Simsbury,CT,9724,4081,61.46%,130.271,1840,42.70734,-71.161052,Lawrence,MA,Essex
76885,97.24577,1,,Valley Spring,TX,21,11,76.19%,104.6956,1841,42.70979,-71.164402,Lawrence,MA,Essex
7751,97.24281,1,450,Morganville,NJ,10758,4737,54.98%,141.0456,1842,42.635443,-70.879123,Lawrence,MA,Essex
2109,97.23901,1,451,Boston,MA,3080,634,65.94%,122.1246,1843,42.71037,-71.088303,Lawrence,MA,Essex
2025,97.23677,1,452,Cohasset,MA,5055,2060,60.73%,130.9391,1844,42.73184,-71.186915,Methuen,MA,Essex
85255,97.23095,1,453,Scottsdale,AZ,16157,6855,52.94%,144.3329,1845,42.672835,-71.087689,North Andover,MA,Essex
22301,97.22434,1,454,Alexandria,VA,7903,2477,61.98%,128.6443,1850,42.446396,-71.459405,Lowell,MA,Middlesex
7722,97.22017,1,455,Colts Neck,NJ,7285,3225,47.59%,153.3279,1851,42.446396,-71.459405,Lowell,MA,Middlesex
19004,97.21635,1,456,Bala Cynwyd,PA,6696,2642,62.02%,128.3841,1852,42.446396,-71.459405,Lowell,MA,Middlesex
94965,97.21183,1,457,Sausalito,CA,9729,2583,62.49%,127.559,1853,42.446396,-71.459405,Lowell,MA,Middlesex
15241,97.20526,1,458,Pittsburgh,PA,14181,6015,64.51%,124.0664,1854,42.446396,-71.459405,Lowell,MA,Middlesex
22307,97.19934,1,459,Alexandria,VA,7430,2547,60.44%,130.9431,1860,42.802441,-71.0896,Merrimac,MA,Essex
10605,97.19382,1,460,White Plains,NY,12666,4738,55.50%,139.4307,1862,42.446396,-71.459405,North Billerica,MA,Middlesex
11545,97.1881,1,461,Glen Head,NY,8170,3376,52.99%,143.7641,1863,42.446396,-71.459405,North Chelmsford,MA,Middlesex
7976,97.18571,1,462,New Vernon,NJ,524,236,64.69%,123.4087,1864,42.581332,-71.083725,North Reading,MA,Middlesex
10994,97.18428,1,463,West Nyack,NY,4684,1825,50.21%,148.2125,1865,42.446396,-71.459405,Nutting Lake,MA,Middlesex
60175,97.17994,1,464,Saint Charles,IL,11157,5135,53.82%,141.906,1866,42.446396,-71.459405,Pinehurst,MA,Middlesex
98029,97.17191,1,465,Issaquah,WA,18071,7894,59.81%,131.5851,1867,42.537065,-71.107172,Reading,MA,Middlesex
59928,97.16694,1,,Polebridge,MT,52,11,59.62%,131.8545,1876,42.446396,-71.459405,Tewksbury,MA,Middlesex
19425,97.16557,1,466,Chester Springs,PA,4987,2086,57.53%,135.4124,1879,42.446396,-71.459405,Tyngsboro,MA,Middlesex
8801,97.1628,1,467,Annandale,NJ,5070,1976,51.28%,146.1583,1880,42.499891,-71.068829,Wakefield,MA,Middlesex
94925,97.15959,1,468,Corte Madera,CA,6638,2489,63.42%,125.204,1885,42.635443,-70.879123,West Boxford,MA,Essex
77479,97.14864,1,469,Sugar Land,TX,33273,14771,59.61%,131.5642,1886,42.446396,-71.459405,Westford,MA,Middlesex
35213,97.13676,1,470,Birmingham,AL,9977,3961,66.56%,119.546,1887,42.561782,-71.173888,Wilmington,MA,Middlesex
3049,97.13274,1,471,Hollis,NH,4680,2013,56.32%,136.9541,1888,42.446396,-71.459405,Woburn,MA,Middlesex
60661,97.13049,1,472,Chicago,IL,3487,674,72.41%,109.2199,1889,42.571633,-71.109646,North Reading,MA,Middlesex
8553,97.12939,1,473,Rocky Hill,NJ,523,199,59.66%,131.1706,1890,42.454545,-71.148779,Winchester,MA,Middlesex
2090,97.12659,1,474,Westwood,MA,9707,3880,57.41%,134.9992,1899,42.635443,-70.879123,Andover,MA,Essex
1886,97.12028,1,475,Westford,MA,13275,5824,56.81%,136.0283,1901,42.461246,-70.946743,Lynn,MA,Essex
11733,97.11333,1,476,East Setauket,NY,12032,4752,54.12%,140.6245,1902,42.473195,-70.928593,Lynn,MA,Essex
63017,97.10166,1,477,Chesterfield,MO,30455,12016,58.92%,132.1918,1903,42.635443,-70.879123,Lynn,MA,Essex
1748,97.091,1,478,Hopkinton,MA,8401,3670,57.70%,134.0944,1904,42.488896,-70.964694,Lynn,MA,Essex
92782,97.08523,1,479,Tustin,CA,12637,4674,59.21%,131.3746,1905,42.469395,-70.972844,Lynn,MA,Essex
55436,97.07925,1,480,Minneapolis,MN,9127,3600,59.02%,131.3837,1906,42.472112,-70.997794,Saugus,MA,Essex
34786,97.07526,1,481,Windermere,FL,5427,2384,54.43%,139.2332,1907,42.513295,-70.905893,Swampscott,MA,Essex
60184,97.07362,1,482,Wayne,IL,543,232,54.14%,139.6948,1908,42.427296,-70.922442,Nahant,MA,Essex
2478,97.06864,1,483,Belmont,MA,17570,6512,63.11%,124.1762,1910,42.454796,-70.974694,Lynn,MA,Essex
94552,97.06131,1,484,Castro Valley,CA,9139,3790,51.24%,144.5486,1913,42.853539,-70.948211,Amesbury,MA,Essex
20878,97.04908,1,485,Gaithersburg,MD,35445,14659,63.15%,124.0193,1915,42.565145,-70.853843,Beverly,MA,Essex
22032,97.034,1,486,Fairfax,VA,19418,8153,60.25%,128.9568,1921,42.683256,-71.017403,Boxford,MA,Essex
2210,97.02859,1,,Boston,MA,334,85,69.16%,113.5703,1922,42.763216,-70.92812,Byfield,MA,Essex
8536,97.02518,1,487,Plainsboro,NJ,12121,4423,70.48%,111.2885,1923,42.577188,-70.949245,Danvers,MA,Essex
5055,97.02122,1,488,Norwich,VT,2297,942,75.05%,103.4063,1929,42.62781,-70.780576,Essex,MA,Essex
34228,97.01861,1,489,Longboat Key,FL,7215,2829,53.06%,141.1986,1930,42.630011,-70.694179,Gloucester,MA,Essex
78015,97.01553,1,490,Boerne,TX,4001,1832,57.86%,132.8835,1931,42.635443,-70.879123,Gloucester,MA,Essex
6830,97.00956,1,491,Greenwich,CT,17740,6212,54.83%,137.91,1936,42.635443,-70.879123,Hamilton,MA,Essex
53217,96.99904,1,492,Milwaukee,WI,20604,8222,65.00%,120.2247,1937,42.635443,-70.879123,Hathorne,MA,Essex
8560,96.99272,1,493,Titusville,NJ,2443,1022,56.20%,135.2202,1938,42.68571,-70.864132,Ipswich,MA,Essex
7746,96.98897,1,494,Marlboro,NJ,11231,4807,51.02%,144.0308,1940,42.533732,-71.028775,Lynnfield,MA,Essex
48864,96.98248,1,495,Okemos,MI,12412,5135,66.85%,116.6968,1944,42.579503,-70.755062,Manchester,MA,Essex
20165,96.97418,1,496,Sterling,VA,17795,7438,55.95%,135.3837,1945,42.56142,-70.770768,Marblehead,MA,Essex
90024,96.963,1,497,Los Angeles,CA,22942,5840,66.22%,117.6317,1949,42.644942,-71.087905,Middleton,MA,Essex
77381,96.95049,1,498,Spring,TX,22631,10177,56.70%,133.8878,1950,42.80965,-70.873196,Newburyport,MA,Essex
7921,96.94259,1,499,Bedminster,NJ,6151,1956,60.93%,126.4763,1951,42.777524,-70.867246,Newbury,MA,Essex
21056,96.94083,1,,Gibson Island,MD,260,117,68.85%,112.8237,1952,42.851234,-70.865667,Salisbury,MA,Essex
7645,96.93944,1,500,Montvale,NJ,4818,2064,55.33%,136.0519,1960,42.536996,-70.973646,Peabody,MA,Essex
95135,96.93496,1,501,San Jose,CA,11522,4478,50.43%,144.3891,1961,42.635443,-70.879123,Peabody,MA,Essex
43017,96.92583,1,502,Dublin,OH,21741,9340,62.21%,124.0559,1965,42.558113,-70.825743,Prides Crossing,MA,Essex
7940,96.91705,1,503,Madison,NJ,10190,3822,56.81%,133.2627,1966,42.657866,-70.618057,Rockport,MA,Essex
6443,96.91093,1,504,Madison,CT,12173,5118,57.25%,132.456,1969,42.716155,-70.892754,Rowley,MA,Essex
11579,96.90658,1,505,Sea Cliff,NY,3692,1374,57.69%,131.6113,1970,42.512946,-70.904237,Salem,MA,Essex
1730,96.90308,1,506,Bedford,MA,9078,3456,57.31%,132.1735,1971,42.635443,-70.879123,Salem,MA,Essex
60044,96.89848,1,507,Lake Bluff,IL,7575,2743,57.35%,131.9499,1982,42.626664,-70.851125,South Hamilton,MA,Essex
92651,96.89092,1,508,Laguna Beach,CA,20034,6236,56.48%,133.1045,1983,42.661793,-70.954487,Topsfield,MA,Essex
10560,96.88448,1,509,North Salem,NY,3442,1338,49.27%,145.5071,1984,42.597691,-70.8732,Wenham,MA,Essex
30075,96.87509,1,510,Roswell,GA,30732,12795,57.52%,131.1523,1985,42.79414,-70.971068,West Newbury,MA,Essex
80025,96.86662,1,,Eldorado Springs,CO,126,27,82.54%,88.02894,2018,41.970474,-70.701357,Accord,MA,Plymouth
7446,96.86391,1,511,Ramsey,NJ,9746,3968,54.57%,136.2258,2019,42.076501,-71.470464,Bellingham,MA,Norfolk
27608,96.85913,1,512,Raleigh,NC,7709,2548,63.73%,120.1684,2020,42.081825,-70.643868,Brant Rock,MA,Plymouth
19034,96.85589,1,513,Fort Washington,PA,4077,1539,56.29%,132.9489,2021,42.179146,-71.121185,Canton,MA,Norfolk
78735,96.85291,1,514,Austin,TX,6776,2572,64.29%,119.1381,2025,42.233938,-70.815826,Cohasset,MA,Norfolk
60605,96.84825,1,515,Chicago,IL,10198,2246,58.32%,129.3883,2026,42.244733,-71.181141,Dedham,MA,Norfolk
7932,96.84373,1,516,Florham Park,NJ,6185,2464,56.09%,133.1947,2027,42.180048,-71.08923,Dedham,MA,Norfolk
22046,96.83926,1,517,Falls Church,VA,10180,3660,60.02%,126.3861,2030,42.236114,-71.283072,Dover,MA,Norfolk
53203,96.83637,1,,Milwaukee,WI,297,58,60.27%,125.9454,2031,41.998799,-71.200894,East Mansfield,MA,Bristol
60203,96.83543,1,518,Evanston,IL,3127,1272,62.20%,122.6137,2032,42.153786,-71.21455,East Walpole,MA,Norfolk
19444,96.8326,1,519,Lafayette Hill,PA,7200,2774,57.01%,131.5406,2035,42.062204,-71.235774,Foxboro,MA,Norfolk
43054,96.82913,1,520,New Albany,OH,5429,2399,54.36%,135.9603,2038,42.08868,-71.404814,Franklin,MA,Norfolk
20147,96.8226,1,521,Ashburn,VA,18360,7837,60.58%,125.2249,2040,41.970474,-70.701357,Greenbush,MA,Plymouth
10708,96.81304,1,522,Bronxville,NY,16504,5763,55.05%,134.743,2041,42.069642,-70.649075,Green Harbor,MA,Plymouth
90067,96.80787,1,523,Los Angeles,CA,2355,744,46.37%,149.6927,2043,42.212105,-70.884989,Hingham,MA,Plymouth
29401,96.80547,1,524,Charleston,SC,6342,1858,64.59%,118.2933,2044,41.970474,-70.701357,Hingham,MA,Plymouth
80209,96.79905,1,525,Denver,CO,17038,4368,65.19%,117.1008,2045,42.284413,-70.873659,Hull,MA,Plymouth
85259,96.78941,1,526,Scottsdale,AZ,18094,7751,54.80%,134.8842,2047,42.142836,-70.69353,Humarock,MA,Plymouth
66217,96.78371,1,527,Shawnee,KS,2693,1182,58.60%,128.2926,2048,42.013182,-71.218373,Mansfield,MA,Bristol
6089,96.78236,1,528,Weatogue,CT,2210,899,63.67%,119.478,2050,42.111805,-70.710744,Marshfield,MA,Plymouth
35242,96.77599,1,529,Birmingham,AL,20971,8811,60.07%,125.6172,2051,42.151202,-70.734146,Marshfield Hills,MA,Plymouth
98053,96.76493,1,530,Redmond,WA,19384,8837,57.76%,129.5557,2052,42.181265,-71.309934,Medfield,MA,Norfolk
94583,96.75137,1,531,San Ramon,CA,30047,11965,52.45%,138.6174,2053,42.156282,-71.427663,Medway,MA,Norfolk
22548,96.7431,1,,Sharps,VA,26,10,76.92%,96.4355,2054,42.165249,-71.36126,Millis,MA,Norfolk
21723,96.74303,1,,Cooksville,MD,222,104,52.25%,138.9377,2055,41.970474,-70.701357,Minot,MA,Plymouth
19422,96.73946,1,532,Blue Bell,PA,12800,5078,55.52%,133.2954,2056,42.117511,-71.331793,Norfolk,MA,Norfolk
94020,96.73563,1,533,La Honda,CA,1159,346,54.36%,135.1221,2059,41.970474,-70.701357,North Marshfield,MA,Plymouth
78258,96.73227,1,534,San Antonio,TX,11089,4967,57.99%,128.7071,2060,41.970474,-70.701357,North Scituate,MA,Plymouth
2458,96.72677,1,535,Newton,MA,8907,2822,65.16%,116.2378,2061,42.154145,-70.823035,Norwell,MA,Plymouth
7950,96.72094,1,536,Morris Plains,NJ,12383,4780,53.87%,135.6151,2062,42.182798,-71.196277,Norwood,MA,Norfolk
48098,96.7095,1,537,Troy,MI,29287,12760,52.89%,137.298,2065,42.097219,-70.651567,Ocean Bluff,MA,Plymouth
22015,96.69373,1,538,Burke,VA,28188,11845,57.96%,128.4717,2066,42.207254,-70.770188,Scituate,MA,Plymouth
94709,96.68414,1,539,Berkeley,CA,6694,1424,79.37%,91.532,2067,42.105288,-71.184785,Sharon,MA,Norfolk
10530,96.6796,1,540,Hartsdale,NY,9864,3558,58.67%,127.087,2070,42.180048,-71.08923,Sheldonville,MA,Norfolk
8853,96.67471,1,541,Neshanic Station,NJ,7936,3392,50.03%,141.957,2071,42.100399,-71.270933,South Walpole,MA,Norfolk
1985,96.67178,1,542,West Newbury,MA,2787,1192,57.23%,129.5178,2072,42.118416,-71.105733,Stoughton,MA,Norfolk
2043,96.66727,1,543,Hingham,MA,13581,5493,57.52%,128.9267,2081,42.148624,-71.255533,Walpole,MA,Norfolk
3854,96.66335,1,544,New Castle,NH,749,297,61.55%,121.986,2090,42.220548,-71.199238,Westwood,MA,Norfolk
20152,96.66193,1,545,Chantilly,VA,4402,1873,61.61%,121.7284,2093,42.054311,-71.371169,Wrentham,MA,Norfolk
20895,96.657,1,546,Kensington,MD,13597,4921,59.98%,124.5214,2101,42.370567,-71.026964,Boston,MA,Suffolk
53092,96.64935,1,547,Thiensville,WI,14280,6075,57.46%,128.8418,2102,42.338947,-70.919635,Boston,MA,Suffolk
11721,96.64422,1,548,Centerport,NY,4381,1794,57.41%,128.847,2103,42.338947,-70.919635,Boston,MA,Suffolk
63038,96.64218,1,549,Glencoe,MO,3086,1449,55.35%,132.2716,2104,42.338947,-70.919635,Boston,MA,Suffolk
92210,96.64038,1,550,Indian Wells,CA,3453,1303,40.17%,158.3857,2105,42.338947,-70.919635,Boston,MA,Suffolk
21794,96.63914,1,551,West Friendship,MD,1078,474,52.88%,136.4572,2106,42.354318,-71.073449,Boston,MA,Suffolk
27514,96.63155,1,552,Chapel Hill,NC,26555,9713,72.37%,102.8506,2107,42.338947,-70.919635,Boston,MA,Suffolk
94087,96.61433,1,553,Sunnyvale,CA,36177,13577,58.07%,127.4649,2108,42.353806,-71.102446,Boston,MA,Suffolk
95138,96.6017,1,554,San Jose,CA,9852,3956,49.53%,142.1335,2109,42.360027,-71.054495,Boston,MA,Suffolk
48322,96.59316,1,555,West Bloomfield,MI,21228,8347,54.64%,133.0914,2110,42.352847,-71.051466,Boston,MA,Suffolk
94502,96.58462,1,556,Alameda,CA,9895,3904,57.25%,128.5881,2111,42.351047,-71.059365,Boston,MA,Suffolk
14051,96.57874,1,557,East Amherst,NY,11518,5101,59.77%,124.1697,2112,42.338947,-70.919635,Boston,MA,Suffolk
85284,96.57249,1,558,Tempe,AZ,11225,4933,58.92%,125.5976,2113,42.365398,-71.055001,Boston,MA,Suffolk
92887,96.56586,1,559,Yorba Linda,CA,12932,5666,48.84%,142.8527,2114,42.362097,-71.023661,Boston,MA,Suffolk
60047,96.55585,1,560,Lake Zurich,IL,23547,10382,50.35%,140.0505,2115,42.342043,-71.096848,Boston,MA,Suffolk
8720,96.54926,1,561,Allenwood,NJ,518,220,40.15%,157.5292,2116,42.347207,-71.086095,Boston,MA,Suffolk
98364,96.5491,1,,Port Gamble,WA,39,15,35.90%,164.7733,2117,42.338947,-70.919635,Boston,MA,Suffolk
11718,96.54851,1,562,Brightwaters,NY,2091,839,53.56%,134.0551,2118,42.336162,-71.072854,Boston,MA,Suffolk
7960,96.53925,1,563,Morristown,NJ,31613,10585,53.62%,133.9113,2119,42.323077,-71.084608,Boston,MA,Suffolk
87011,96.53058,1,,Claunch,NM,13,3,100%,53.9385,2120,42.332484,-71.096416,Boston,MA,Suffolk
45349,96.53058,1,,North Hampton,OH,7,3,100%,53.9385,2121,42.307098,-71.081645,Boston,MA,Suffolk
1983,96.52943,1,564,Topsfield,MA,4135,1718,51.97%,136.6115,2122,42.29658,-71.055215,Boston,MA,Suffolk
94111,96.52747,1,565,San Francisco,CA,3018,682,57.29%,127.3446,2123,42.338947,-70.919635,Boston,MA,Suffolk
95746,96.52302,1,566,Granite Bay,CA,13214,6018,51.00%,138.1506,2124,42.286784,-71.071045,Boston,MA,Suffolk
20905,96.51611,1,567,Silver Spring,MD,11950,5046,55.70%,130.0134,2125,42.31476,-71.067244,Boston,MA,Suffolk
20721,96.50886,1,568,Bowie,MD,14451,5915,52.18%,135.9629,2126,42.301247,-71.105195,Mattapan,MA,Suffolk
6107,96.50123,1,569,West Hartford,CT,13362,5229,63.07%,117.1204,2127,42.329023,-71.020343,Boston,MA,Suffolk
80425,96.49753,1,,Buffalo Creek,CO,86,37,52.33%,135.5746,2128,42.364197,-71.025694,Boston,MA,Suffolk
11559,96.49614,1,570,Lawrence,NY,5023,2098,52.52%,135.2176,2129,42.382588,-71.065287,Charlestown,MA,Suffolk
30328,96.48884,1,571,Atlanta,GA,21544,7268,61.50%,119.6297,2130,42.309661,-71.121097,Jamaica Plain,MA,Suffolk
7058,96.48194,1,572,Pine Brook,NJ,3610,1504,55.57%,129.7767,2131,42.284197,-71.120896,Roslindale,MA,Suffolk
8003,96.47517,1,573,Cherry Hill,NJ,21056,8708,57.40%,126.5848,2132,42.277897,-71.155833,West Roxbury,MA,Suffolk
74137,96.4653,1,574,Tulsa,OK,14911,6409,58.31%,125.0026,2133,42.338947,-70.919635,Boston,MA,Suffolk
8889,96.4594,1,575,Whitehouse Station,NJ,6625,2782,50.38%,138.5271,2134,42.357169,-71.112646,Allston,MA,Suffolk
94960,96.45423,1,576,San Anselmo,CA,12170,4386,61.45%,119.41,2135,42.349768,-71.104888,Brighton,MA,Suffolk
75248,96.44408,1,577,Dallas,TX,24779,9266,58.58%,124.3175,2136,42.254248,-71.129321,Hyde Park,MA,Suffolk
60302,96.43095,1,578,Oak Park,IL,23050,7876,63.82%,115.261,2137,42.338947,-70.919635,Readville,MA,Suffolk
53717,96.42259,1,579,Madison,WI,7394,2770,63.62%,115.601,2138,42.380442,-71.132947,Cambridge,MA,Middlesex
15090,96.4174,1,580,Wexford,PA,11581,4923,58.27%,124.7503,2139,42.365146,-71.101842,Cambridge,MA,Middlesex
11050,96.40869,1,581,Port Washington,NY,20162,7799,53.20%,133.4589,2140,42.393246,-71.133833,Cambridge,MA,Middlesex
97201,96.39809,1,582,Portland,OR,18469,5125,63.56%,115.5696,2141,42.368673,-71.083596,Cambridge,MA,Middlesex
91361,96.38923,1,583,Westlake Village,CA,13808,5565,51.94%,135.4464,2142,42.36284,-71.084814,Cambridge,MA,Middlesex
60461,96.38452,1,584,Olympia Fields,IL,3347,1352,55.24%,129.7531,2143,42.38092,-71.098896,Somerville,MA,Middlesex
85262,96.38142,1,585,Scottsdale,AZ,7930,3420,52.03%,135.1771,2144,42.402696,-71.12022,Somerville,MA,Middlesex
98006,96.37262,1,586,Bellevue,WA,24162,10199,60.73%,120.1789,2145,42.391046,-71.095146,Somerville,MA,Middlesex
80302,96.3621,1,587,Boulder,CO,14128,3973,72.22%,100.3361,2148,42.436545,-71.085396,Malden,MA,Middlesex
90292,96.35387,1,588,Marina del Rey,CA,15824,3702,60.26%,120.9452,2149,42.407396,-71.051183,Everett,MA,Middlesex
2464,96.34895,1,589,Newton Upper Falls,MA,2152,646,64.50%,113.399,2150,42.378197,-71.038894,Chelsea,MA,Suffolk
94131,96.34199,1,590,San Francisco,CA,23221,5630,61.50%,118.5692,2151,42.366303,-71.020494,Revere,MA,Suffolk
19103,96.33112,1,591,Philadelphia,PA,16370,2866,67.98%,107.1068,2152,42.378447,-70.981679,Winthrop,MA,Suffolk
20855,96.32356,1,592,Derwood,MD,11149,4526,55.71%,128.1971,2153,42.446396,-71.459405,Medford,MA,Middlesex
85263,96.32011,1,593,Rio Verde,AZ,1481,678,56.38%,126.9274,2155,42.422095,-71.109297,Medford,MA,Middlesex
46032,96.31336,1,594,Carmel,IN,23022,9776,60.00%,120.6849,2156,42.446396,-71.459405,West Medford,MA,Middlesex
75252,96.30259,1,595,Dallas,TX,16268,5407,60.87%,119.1106,2163,42.32532,-71.112159,Boston,MA,Suffolk
48105,96.29212,1,596,Ann Arbor,MI,21847,8167,74.50%,95.58949,2169,42.241799,-71.006042,Quincy,MA,Norfolk
11804,96.28518,1,597,Old Bethpage,NY,3468,1448,52.16%,134.0551,2170,42.267248,-71.016742,Quincy,MA,Norfolk
10956,96.27834,1,598,New City,NY,21416,8625,52.99%,132.5606,2171,42.284898,-71.014243,Quincy,MA,Norfolk
18471,96.27236,1,,Waverly,PA,414,177,64.49%,112.7047,2176,42.458995,-71.053095,Melrose,MA,Middlesex
7649,96.27069,1,599,Oradell,NJ,5617,2333,51.81%,134.4762,2177,42.446396,-71.459405,Melrose,MA,Middlesex
23507,96.26779,1,600,Norfolk,VA,4987,1282,66.41%,109.2264,2180,42.474595,-71.098146,Stoneham,MA,Middlesex
2575,96.26634,1,,West Tisbury,MA,307,125,64.17%,113.0133,2184,42.202216,-71.005192,Braintree,MA,Norfolk
55129,96.26514,1,601,Saint Paul,MN,4047,1790,52.24%,133.5504,2185,42.180048,-71.08923,Braintree,MA,Norfolk
36564,96.26401,1,,Point Clear,AL,82,35,81.71%,82.74624,2186,42.240598,-71.078494,Milton,MA,Norfolk
3031,96.26208,1,602,Amherst,NH,6906,3054,55.52%,127.6191,2187,42.180048,-71.08923,Milton Village,MA,Norfolk
14506,96.25998,1,603,Mendon,NY,799,369,56.95%,125.1491,2188,42.20794,-70.95514,Weymouth,MA,Norfolk
20838,96.2597,1,,Barnesville,MD,138,64,53.62%,130.76,2189,42.210649,-70.932318,Weymouth,MA,Norfolk
92612,96.25349,1,604,Irvine,CA,22520,7973,67.58%,106.5629,2190,42.167841,-70.95074,Weymouth,MA,Norfolk
27513,96.24072,1,605,Cary,NC,23989,9740,63.17%,114.1326,2191,42.251499,-70.94484,Weymouth,MA,Norfolk
94402,96.22941,1,606,San Mateo,CA,17213,6300,52.69%,132.0558,2196,42.338947,-70.919635,Boston,MA,Suffolk
94070,96.219,1,607,San Carlos,CA,20743,7808,49.67%,137.2091,2199,42.347247,-71.082395,Boston,MA,Suffolk
2494,96.21152,1,608,Needham Heights,MA,6552,2470,56.70%,124.9582,2201,42.338947,-70.919635,Boston,MA,Suffolk
97221,96.20741,1,609,Portland,OR,8384,3114,60.66%,118.0933,2202,42.361094,-71.061814,Boston,MA,Suffolk
92620,96.20052,1,610,Irvine,CA,16702,6918,57.12%,124.1566,2203,42.361485,-71.060364,Boston,MA,Suffolk
30342,96.19093,1,611,Atlanta,GA,18255,5391,61.37%,116.6889,2204,42.338947,-70.919635,Boston,MA,Suffolk
92075,96.18341,1,612,Solana Beach,CA,9127,3132,57.93%,122.5901,2205,42.350334,-71.053877,Boston,MA,Suffolk
11021,96.17684,1,613,Great Neck,NY,14808,5208,56.95%,124.2665,2206,42.338947,-70.919635,Boston,MA,Suffolk
2465,96.17059,1,614,West Newton,MA,8004,2968,58.22%,122.054,2207,42.338947,-70.919635,Boston,MA,Suffolk
80304,96.16366,1,615,Boulder,CO,17250,5677,67.64%,105.7338,2208,42.338947,-70.919635,Boston,MA,Suffolk
6090,96.15876,1,616,West Granby,CT,537,210,55.12%,127.2661,2209,42.338947,-70.919635,Boston,MA,Suffolk
66223,96.15652,1,617,Overland Park,KS,7644,3530,61.34%,116.4771,2210,42.347547,-71.040645,Boston,MA,Suffolk
22989,96.15438,1,,Woodberry Forest,VA,153,55,90.20%,66.66406,2211,42.338947,-70.919635,Boston,MA,Suffolk
80126,96.14243,1,618,Littleton,CO,43386,18933,58.86%,120.6287,2212,42.446396,-71.459405,Boston,MA,Middlesex
30346,96.13024,1,619,Atlanta,GA,1045,191,77.32%,88.80827,2215,42.345079,-71.107653,Boston,MA,Suffolk
11768,96.12569,1,620,Northport,NY,15495,6084,50.84%,134.3847,2216,42.338947,-70.919635,Boston,MA,Suffolk
87544,96.1179,1,621,Los Alamos,NM,12831,5399,60.47%,117.7258,2217,42.338947,-70.919635,Boston,MA,Suffolk
78717,96.11304,1,622,Austin,TX,4939,2216,59.08%,120.0638,2222,42.364381,-71.063314,Boston,MA,Suffolk
22153,96.10594,1,623,Springfield,VA,20907,9048,56.03%,125.2681,2228,,,East Boston,MA,Suffolk
5254,96.10014,1,,Manchester,VT,187,66,66.84%,106.6112,2238,42.446396,-71.459405,Cambridge,MA,Middlesex
80439,96.09554,1,624,Evergreen,CO,16638,6984,58.73%,120.5725,2239,42.446396,-71.459405,Cambridge,MA,Middlesex
48236,96.08498,1,625,Grosse Pointe,MI,21825,9154,55.61%,125.8983,2241,42.338947,-70.919635,Boston,MA,Suffolk
37069,96.07615,1,626,Franklin,TN,10342,4683,58.40%,120.9635,2266,42.338947,-70.919635,Boston,MA,Suffolk
7738,96.07217,1,627,Lincroft,NJ,4105,1724,48.67%,137.5883,2269,42.180048,-71.08923,Quincy,MA,Norfolk
83353,96.07085,1,628,Sun Valley,ID,741,214,55.06%,126.5613,2283,42.338947,-70.919635,Boston,MA,Suffolk
38138,96.06631,1,629,Germantown,TN,15776,6881,56.50%,123.9474,2284,42.338947,-70.919635,Boston,MA,Suffolk
97210,96.05976,1,630,Portland,OR,8139,1780,65.07%,109.046,2293,42.338947,-70.919635,Boston,MA,Suffolk
10589,96.05589,1,631,Somers,NY,5904,2228,52.52%,130.5351,2295,42.338947,-70.919635,Boston,MA,Suffolk
66206,96.05235,1,632,Leawood,KS,7068,2903,61.39%,115.176,2297,42.338947,-70.919635,Boston,MA,Suffolk
20832,96.04613,1,633,Olney,MD,15593,6786,54.61%,126.7496,2301,42.079399,-71.03999,Brockton,MA,Plymouth
7092,96.04049,1,634,Mountainside,NJ,4931,1935,47.90%,138.3088,2302,42.08475,-71.000189,Brockton,MA,Plymouth
66219,96.03779,1,635,Lenexa,KS,4923,2112,64.13%,110.2438,2303,41.970474,-70.701357,Brockton,MA,Plymouth
90403,96.03095,1,636,Santa Monica,CA,19997,4716,62.44%,113.0394,2304,41.970474,-70.701357,Brockton,MA,Plymouth
8833,96.02393,1,637,Lebanon,NJ,5580,2376,46.61%,140.2545,2305,41.970474,-70.701357,Brockton,MA,Plymouth
6470,96.01968,1,638,Newtown,CT,9872,3930,50.63%,133.217,2322,42.126049,-71.048216,Avon,MA,Norfolk
8033,96.01379,1,639,Haddonfield,NJ,11607,4593,56.92%,122.3639,2324,41.973741,-70.976558,Bridgewater,MA,Plymouth
80921,96.00909,1,640,Colorado Springs,CO,5530,2554,59.37%,118.0462,2325,41.98725,-70.972786,Bridgewater,MA,Plymouth
48084,96.00488,1,641,Troy,MI,9807,3526,60.51%,116.0547,2327,42.040708,-70.827245,Bryantville,MA,Plymouth
75039,96.00155,1,642,Irving,TX,2316,508,72.93%,94.56694,2330,41.896238,-70.759689,Carver,MA,Plymouth
68118,95.99958,1,643,Omaha,NE,4828,2254,55.22%,125.0432,2331,41.970474,-70.701357,Duxbury,MA,Plymouth
45249,95.99583,1,644,Cincinnati,OH,8839,3772,56.79%,122.275,2332,42.052985,-70.710808,Duxbury,MA,Plymouth
8750,95.99261,1,645,Sea Girt,NJ,2888,1073,55.06%,125.1491,2333,42.02285,-70.931056,East Bridgewater,MA,Plymouth
20191,95.98627,1,646,Reston,VA,20237,7726,57.82%,120.3267,2334,42.023528,-71.132397,Easton,MA,Bristol
11743,95.97274,1,647,Huntington,NY,29016,11280,51.59%,131.032,2337,42.022225,-70.931588,Elmwood,MA,Plymouth
20852,95.95751,1,648,Rockville,MD,26486,8768,63.12%,111.1068,2338,41.988351,-70.860578,Halifax,MA,Plymouth
78701,95.94943,1,649,Austin,TX,2902,377,46.21%,140.2283,2339,42.123534,-70.851048,Hanover,MA,Plymouth
55331,95.9455,1,650,Excelsior,MN,11452,4914,53.88%,126.9941,2340,42.123534,-70.851048,Hanover,MA,Plymouth
7933,95.94176,1,651,Gillette,NJ,2200,901,49.27%,134.7639,2341,42.055701,-70.875936,Hanson,MA,Plymouth
2906,95.93649,1,652,Providence,RI,17008,5193,66.02%,105.8934,2343,42.144424,-71.00289,Holbrook,MA,Norfolk
20319,95.93179,1,,Washington,DC,55,22,76.36%,87.99102,2344,41.970474,-70.701357,Middleboro,MA,Plymouth
35243,95.9287,1,653,Birmingham,AL,11262,4415,62.41%,112.0286,2345,41.888198,-70.581029,Manomet,MA,Plymouth
28270,95.92088,1,654,Charlotte,NC,17175,7360,58.71%,118.3731,2346,41.915054,-70.882035,Middleboro,MA,Plymouth
11790,95.91341,1,655,Stony Brook,NY,10042,3999,55.96%,123.0779,2347,41.843757,-70.959981,Lakeville,MA,Plymouth
22180,95.90638,1,656,Vienna,VA,15571,6033,57.22%,120.8092,2348,41.970474,-70.701357,Middleboro,MA,Plymouth
94517,95.89942,1,657,Clayton,CA,9803,4115,47.61%,137.3464,2349,41.970474,-70.701357,Middleboro,MA,Plymouth
11960,95.89657,1,658,Remsenburg,NY,596,237,53.36%,127.4047,2350,42.018525,-70.847486,Monponsett,MA,Plymouth
77079,95.89073,1,659,Houston,TX,20659,9009,60.34%,115.3146,2351,42.11749,-70.959888,Abington,MA,Plymouth
29451,95.88411,1,660,Isle of Palms,SC,3484,1385,59.76%,116.2116,2355,41.916918,-70.801331,North Carver,MA,Plymouth
10520,95.88065,1,661,Croton on Hudson,NY,9096,3264,50.91%,131.351,2356,42.053408,-71.12033,North Easton,MA,Bristol
80027,95.87317,1,662,Louisville,CO,18152,7340,62.87%,110.7197,2357,42.064499,-71.087091,North Easton,MA,Bristol
60187,95.85747,1,663,Wheaton,IL,39061,15764,57.77%,119.4911,2358,41.95351,-70.713109,North Pembroke,MA,Plymouth
77069,95.84377,1,664,Houston,TX,10856,4257,54.36%,125.3322,2359,42.065702,-70.800778,Pembroke,MA,Plymouth
1944,95.83978,1,665,Manchester,MA,3704,1459,55.99%,122.4031,2360,41.886207,-70.638717,Plymouth,MA,Plymouth
2881,95.83818,1,666,Kingston,RI,2056,832,68.00%,101.6332,2361,41.970474,-70.701357,Plymouth,MA,Plymouth
80112,95.83371,1,667,Englewood,CO,14239,5734,56.87%,120.7804,2362,41.970474,-70.701357,Plymouth,MA,Plymouth
23113,95.8242,1,668,Midlothian,VA,20403,8953,56.45%,121.4983,2364,41.979405,-70.744813,Kingston,MA,Plymouth
11570,95.81342,1,669,Rockville Centre,NY,18929,7229,49.39%,133.6158,2366,41.850087,-70.704431,South Carver,MA,Plymouth
43065,95.80396,1,670,Powell,OH,15565,6810,57.00%,120.3594,2367,41.96914,-70.812299,Plympton,MA,Plymouth
99516,95.79585,1,671,Anchorage,AK,13933,6112,50.22%,132.0284,2368,42.171467,-71.055602,Randolph,MA,Norfolk
20882,95.78987,1,672,Gaithersburg,MD,7869,3427,50.45%,131.5851,2370,41.954199,-70.885095,Rockland,MA,Plymouth
91377,95.78519,1,673,Oak Park,CA,9146,4020,51.30%,130.0879,2375,42.023199,-71.111091,South Easton,MA,Bristol
78759,95.7748,1,674,Austin,TX,28716,9644,64.13%,107.9424,2379,42.02165,-71.023588,West Bridgewater,MA,Plymouth
90293,95.76437,1,675,Playa del Rey,CA,9304,2368,59.68%,115.5945,2381,41.931602,-70.561051,White Horse Beach,MA,Plymouth
12159,95.76035,1,676,Slingerlands,NY,5339,2088,58.66%,117.344,2382,42.0785,-70.940837,Whitman,MA,Plymouth
33606,95.75595,1,677,Tampa,FL,10694,2861,57.50%,119.3355,2420,42.45631,-71.21665,Lexington,MA,Middlesex
5344,95.75299,1,,Marlboro,VT,60,25,88.33%,66.19725,2421,42.442567,-71.226453,Lexington,MA,Middlesex
23304,95.75295,1,,Battery Park,VA,95,49,55.79%,122.1508,2445,42.318097,-71.143697,Brookline,MA,Norfolk
92694,95.75287,1,,Ladera Ranch,CA,231,127,48.92%,133.9532,2446,42.343097,-71.123046,Brookline,MA,Norfolk
4629,95.75279,1,,East Blue Hill,ME,48,18,50%,132.0571,2447,42.180048,-71.08923,Brookline Village,MA,Norfolk
32082,95.74725,1,678,Ponte Vedra Beach,FL,20129,8118,56.43%,120.8549,2451,42.398588,-71.24505,Waltham,MA,Middlesex
27613,95.73508,1,679,Raleigh,NC,24241,9660,60.58%,113.6592,2452,42.394319,-71.218049,Waltham,MA,Middlesex
7871,95.72501,1,680,Sparta,NJ,12431,5369,50.44%,131.0581,2453,42.365396,-71.23165,Waltham,MA,Middlesex
21737,95.72145,1,681,Glenelg,MD,533,267,47.65%,135.8518,2454,42.356719,-71.250479,Waltham,MA,Middlesex
22315,95.71701,1,682,Alexandria,VA,15668,5813,60.52%,113.6174,2455,,,North Waltham,MA,Middlesex
8525,95.71175,1,683,Hopewell,NJ,3520,1426,53.58%,125.5479,2456,42.446396,-71.459405,New Town,MA,Middlesex
72223,95.70782,1,684,Little Rock,AR,10758,4596,58.70%,116.634,2457,42.180048,-71.08923,Babson Park,MA,Norfolk
85718,95.69946,1,685,Tucson,AZ,19724,7401,61.36%,112.0339,2458,42.385096,-71.208399,Newton,MA,Middlesex
7023,95.69267,1,686,Fanwood,NJ,4999,2044,50.97%,129.7558,2459,42.334146,-71.183298,Newton Center,MA,Middlesex
84098,95.68898,1,687,Park City,UT,8413,3482,57.43%,118.5536,2460,42.374296,-71.182371,Newtonville,MA,Middlesex
94588,95.68144,1,688,Pleasanton,CA,19075,7794,49.28%,132.5109,2461,42.361196,-71.205349,Newton Highlands,MA,Middlesex
20850,95.6699,1,689,Rockville,MD,22934,8526,58.65%,116.2822,2462,42.349496,-71.209699,Newton Lower Falls,MA,Middlesex
78261,95.66342,1,690,San Antonio,TX,685,334,54.31%,123.7565,2464,42.36599,-71.221849,Newton Upper Falls,MA,Middlesex
10282,95.66295,1,691,New York,NY,1039,317,58.42%,116.6523,2465,42.378145,-71.213199,West Newton,MA,Middlesex
21013,95.66196,1,692,Baldwin,MD,2607,1153,54.58%,123.1628,2466,42.346696,-71.224957,Auburndale,MA,Middlesex
20120,95.65533,1,693,Centreville,VA,21491,8957,53.95%,124.1906,2467,42.357564,-71.211649,Chestnut Hill,MA,Middlesex
1106,95.64642,1,694,Longmeadow,MA,11027,4525,60.13%,113.4186,2468,42.327146,-71.231534,Waban,MA,Middlesex
55346,95.6403,1,695,Eden Prairie,MN,11179,4908,56.02%,120.3424,2471,42.446396,-71.459405,Watertown,MA,Middlesex
50325,95.63493,1,696,Clive,IA,8431,3737,56.77%,119.0164,2472,42.363096,-71.201398,Watertown,MA,Middlesex
60089,95.62505,1,697,Buffalo Grove,IL,27549,11448,55.08%,121.8709,2474,42.417595,-71.159696,Arlington,MA,Middlesex
94129,95.61707,1,698,San Francisco,CA,1538,404,74.90%,87.66805,2475,42.446396,-71.459405,Arlington Heights,MA,Middlesex
80124,95.6144,1,699,Lone Tree,CO,8198,3625,55.82%,120.5254,2476,42.379146,-71.184299,Arlington,MA,Middlesex
43082,95.60902,1,700,Westerville,OH,11398,5093,50.24%,130.0304,2477,42.446396,-71.459405,Watertown,MA,Middlesex
89148,95.60571,1,701,Las Vegas,NV,646,261,38.08%,150.8879,2478,42.412795,-71.204399,Belmont,MA,Middlesex
94117,95.59714,1,702,San Francisco,CA,30599,4597,64.88%,104.6904,2479,42.446396,-71.459405,Waverley,MA,Middlesex
55317,95.58587,1,703,Chanhassen,MN,10447,4630,54.60%,122.3678,2481,42.310597,-71.274652,Wellesley Hills,MA,Norfolk
21035,95.58158,1,704,Davidsonville,MD,5144,2213,46.54%,136.2062,2482,42.294546,-71.299201,Wellesley,MA,Norfolk
90212,95.57783,1,705,Beverly Hills,CA,8562,2616,60.07%,112.7883,2492,42.279797,-71.25006,Needham,MA,Norfolk
14618,95.57121,1,706,Rochester,NY,15547,5686,63.18%,107.3448,2493,42.375925,-71.227208,Weston,MA,Middlesex
75230,95.56125,1,707,Dallas,TX,20740,6974,55.74%,120.1214,2494,42.300147,-71.26315,Needham Heights,MA,Norfolk
19118,95.55355,1,708,Philadelphia,PA,7329,2278,62.61%,108.2222,2495,42.446396,-71.459405,Nonantum,MA,Middlesex
7977,95.55138,1,709,Peapack,NJ,565,171,45.49%,137.6419,2532,41.745505,-70.590471,Buzzards Bay,MA,Barnstable
45243,95.5482,1,710,Cincinnati,OH,10974,4571,55.66%,120.1031,2534,41.669373,-70.62337,Cataumet,MA,Barnstable
11771,95.54335,1,711,Oyster Bay,NY,6734,2540,48.99%,131.5276,2535,41.379034,-70.673082,Chilmark,MA,Dukes
2061,95.5397,1,712,Norwell,MA,6564,2732,51.87%,126.5378,2536,41.662506,-70.562843,East Falmouth,MA,Barnstable
21044,95.53028,1,713,Columbia,MD,27813,10533,60.39%,111.6821,2537,41.72832,-70.439975,East Sandwich,MA,Barnstable
68135,95.52057,1,714,Omaha,NE,7558,3674,56.21%,118.8007,2538,41.77544,-70.660562,East Wareham,MA,Plymouth
33957,95.51702,1,715,Sanibel,FL,5325,2134,54.99%,120.8942,2539,41.401176,-70.552054,Edgartown,MA,Dukes
92614,95.51159,1,716,Irvine,CA,14483,5781,59.34%,113.3022,2540,41.614199,-70.493263,Falmouth,MA,Barnstable
1984,95.50696,1,717,Wenham,MA,2403,952,50.65%,128.15,2541,41.799312,-70.308662,Falmouth,MA,Barnstable
94566,95.49956,1,718,Pleasanton,CA,24525,10148,45.53%,136.9319,2542,41.65308,-70.553727,Buzzards Bay,MA,Barnstable
1581,95.48956,1,719,Westborough,MA,11948,4491,53.16%,123.712,2543,41.593809,-70.646442,Woods Hole,MA,Barnstable
48324,95.48298,1,720,West Bloomfield,MI,11968,5010,51.66%,126.2723,2552,41.379836,-70.643092,Menemsha,MA,Dukes
18940,95.47478,1,721,Newtown,PA,17948,7534,53.76%,122.5143,2553,41.67336,-70.608047,Monument Beach,MA,Barnstable
94946,95.46973,1,,Nicasio,CA,402,158,45.27%,137.1032,2554,41.287647,-70.08665,Nantucket,MA,Nantucket
19355,95.46539,1,722,Malvern,PA,15422,6088,56.02%,118.4764,2556,41.652967,-70.375475,North Falmouth,MA,Barnstable
78255,95.46054,1,723,San Antonio,TX,2288,921,51.70%,125.863,2557,41.417376,-70.560032,Oak Bluffs,MA,Dukes
22152,95.45469,1,724,Springfield,VA,18985,7683,56.37%,117.7651,2558,41.74756,-70.658164,Onset,MA,Plymouth
18925,95.44891,1,725,Furlong,PA,2071,855,50.89%,127.0543,2559,41.694771,-70.622769,Pocasset,MA,Barnstable
11509,95.44777,1,726,Atlantic Beach,NY,2091,819,49.07%,130.05,2561,41.770254,-70.533664,Sagamore,MA,Barnstable
85054,95.44675,1,727,Phoenix,AZ,1616,735,54.08%,121.3061,2562,41.793263,-70.519584,Sagamore Beach,MA,Barnstable
7044,95.44349,1,728,Verona,NJ,10312,3829,50.41%,127.6335,2563,41.711291,-70.477482,Sandwich,MA,Barnstable
55123,95.43616,1,729,Saint Paul,MN,16371,7314,55.66%,118.4908,2564,41.273949,-70.015545,Siasconset,MA,Nantucket
94002,95.42644,1,730,Belmont,CA,19040,6709,51.83%,124.9856,2565,41.799312,-70.308662,Silver Beach,MA,Barnstable
33076,95.41796,1,731,Pompano Beach,FL,11838,5420,47.69%,132.0951,2568,41.41595,-70.595235,Vineyard Haven,MA,Dukes
94037,95.41426,1,732,Montara,CA,1626,670,50.49%,127.2295,2571,41.760216,-70.694662,Wareham,MA,Plymouth
7830,95.41257,1,733,Califon,NJ,4550,1922,50.13%,127.7761,2573,41.379836,-70.643092,West Chop,MA,Dukes
21046,95.4086,1,734,Columbia,MD,9929,4020,61.14%,108.7518,2574,41.603946,-70.638189,West Falmouth,MA,Barnstable
50131,95.40425,1,735,Johnston,IA,5917,2455,49.96%,127.9369,2575,41.42125,-70.642806,West Tisbury,MA,Dukes
75063,95.39771,1,736,Irving,TX,17863,5795,62.41%,106.4269,2576,41.769863,-70.749688,West Wareham,MA,Plymouth
53705,95.3874,1,737,Madison,WI,19739,6912,70.86%,91.84451,2584,41.277794,-70.046019,Nantucket,MA,Nantucket
6033,95.37682,1,738,Glastonbury,CT,18777,7691,53.97%,120.9059,2601,41.829813,-70.138834,Hyannis,MA,Barnstable
7624,95.37,1,739,Closter,NJ,6073,2548,50.95%,126.0644,2630,41.697313,-70.301394,Barnstable,MA,Barnstable
4107,95.3666,1,740,Cape Elizabeth,ME,6315,2606,58.69%,112.6184,2631,41.852997,-70.044462,Brewster,MA,Barnstable
80132,95.36246,1,741,Monument,CO,8794,4075,53.50%,121.51,2632,41.796311,-70.175129,Centerville,MA,Barnstable
55442,95.35766,1,742,Minneapolis,MN,8668,3749,53.45%,121.5807,2633,41.859559,-70.0468,Chatham,MA,Barnstable
92610,95.35336,1,743,Foothill Ranch,CA,7018,3044,49.73%,127.7002,2634,41.799312,-70.308662,Centerville,MA,Barnstable
30339,95.34821,1,744,Atlanta,GA,11698,2678,66.60%,98.54989,2635,41.624341,-70.43638,Cotuit,MA,Barnstable
2186,95.34032,1,745,Milton,MA,17092,6777,52.19%,123.3838,2636,41.799312,-70.308662,Centerville,MA,Barnstable
28757,95.33558,1,,Montreat,NC,141,48,87.94%,61.70303,2637,41.701438,-70.277212,Cummaquid,MA,Barnstable
11557,95.33405,1,746,Hewlett,NY,5460,2240,48.61%,129.4642,2638,41.725716,-70.089142,Dennis,MA,Barnstable
38120,95.32979,1,747,Memphis,TN,10069,3965,57.36%,114.3117,2639,41.750745,-70.071836,Dennis Port,MA,Barnstable
33924,95.32693,1,,Captiva,FL,372,117,32.26%,157.5501,2641,41.734713,-70.20467,East Dennis,MA,Barnstable
77494,95.32491,1,748,Katy,TX,6995,3262,53.50%,120.9177,2642,41.850612,-70.020648,Eastham,MA,Barnstable
1450,95.32131,1,749,Groton,MA,6048,2549,53.84%,120.3175,2643,41.784308,-69.962034,East Orleans,MA,Barnstable
40513,95.31817,1,750,Lexington,KY,5435,2380,55.16%,117.9978,2644,41.790031,-70.268632,Forestdale,MA,Barnstable
7006,95.3116,1,751,Caldwell,NJ,18448,6822,49.57%,127.6375,2645,41.835582,-70.043359,Harwich,MA,Barnstable
19350,95.30491,1,752,Landenberg,PA,5926,2656,50.57%,125.8997,2646,41.845717,-70.053544,Harwich Port,MA,Barnstable
2476,95.29974,1,753,Arlington,MA,12965,4204,57.82%,113.3938,2647,41.635004,-70.306336,Hyannis Port,MA,Barnstable
95616,95.28699,1,754,Davis,CA,33477,12598,68.51%,94.95268,2648,41.813034,-70.246666,Marstons Mills,MA,Barnstable
36559,95.27771,1,,Montrose,AL,316,92,58.23%,112.6393,2649,41.788337,-70.253543,Mashpee,MA,Barnstable
8057,95.274,1,755,Moorestown,NJ,13141,5406,51.92%,123.4623,2650,41.73497,-70.029065,North Chatham,MA,Barnstable
95129,95.26324,1,756,San Jose,CA,26086,9932,55.60%,117.0459,2651,41.824264,-69.98176,North Eastham,MA,Barnstable
48103,95.24673,1,757,Ann Arbor,MI,34019,12433,62.44%,105.22,2652,41.931061,-70.283584,North Truro,MA,Barnstable
2462,95.23708,1,758,Newton Lower Falls,MA,1200,360,58.08%,112.6903,2653,41.852933,-70.01539,Orleans,MA,Barnstable
20839,95.23672,1,,Beallsville,MD,76,33,44.74%,135.606,2655,41.810178,-70.191269,Osterville,MA,Barnstable
98105,95.23132,1,759,Seattle,WA,19615,5563,68.96%,93.82553,2657,41.888775,-70.091057,Provincetown,MA,Barnstable
98110,95.22205,1,760,Bainbridge Island,WA,14172,5769,60.06%,109.0735,2659,41.848932,-70.030194,South Chatham,MA,Barnstable
46301,95.21801,1,761,Beverly Shores,IN,558,195,58.24%,112.196,2660,41.80038,-70.089244,South Dennis,MA,Barnstable
72212,95.21594,1,762,Little Rock,AR,6929,2955,58.93%,111.0074,2661,41.686205,-70.032858,South Harwich,MA,Barnstable
3087,95.21209,1,763,Windham,NH,7097,3053,47.75%,130.1977,2662,41.756694,-69.984123,South Orleans,MA,Barnstable
15238,95.20753,1,764,Pittsburgh,PA,9501,3862,57.57%,113.2669,2663,41.800531,-70.076776,South Wellfleet,MA,Barnstable
8807,95.19804,1,765,Bridgewater,NJ,25116,10037,49.63%,126.8542,2664,41.82412,-70.084259,South Yarmouth,MA,Barnstable
14802,95.19099,1,766,Alfred,NY,536,149,69.59%,92.43948,2666,41.987377,-70.047163,Truro,MA,Barnstable
27605,95.18996,1,767,Raleigh,NC,3243,623,65.99%,98.61658,2667,41.821307,-70.022806,Wellfleet,MA,Barnstable
3824,95.18726,1,768,Durham,NH,6557,2659,65.26%,99.85749,2668,41.79055,-70.201719,West Barnstable,MA,Barnstable
98004,95.1807,1,769,Bellevue,WA,17338,6038,57.71%,112.8537,2669,41.698721,-70.004937,West Chatham,MA,Barnstable
90803,95.16885,1,770,Long Beach,CA,25912,6706,55.21%,117.0903,2670,41.710855,-70.072195,West Dennis,MA,Barnstable
11747,95.15865,1,771,Melville,NY,11179,4308,47.91%,129.6002,2671,41.846719,-70.038282,West Harwich,MA,Barnstable
7626,95.1541,1,772,Cresskill,NJ,5408,2195,50.07%,125.85,2672,41.635635,-70.323307,West Hyannisport,MA,Barnstable
48309,95.14744,1,773,Rochester,MI,18825,7730,50.62%,124.8967,2673,41.776105,-70.150512,West Yarmouth,MA,Barnstable
28211,95.13687,1,774,Charlotte,NC,19697,7476,58.03%,112.0142,2675,41.716271,-70.135884,Yarmouth Port,MA,Barnstable
32312,95.12633,1,775,Tallahassee,FL,18734,8326,62.54%,104.1307,2702,41.782993,-71.017328,Assonet,MA,Bristol
10607,95.11966,1,776,White Plains,NY,5544,2002,46.14%,132.3749,2703,41.938976,-71.302297,Attleboro,MA,Bristol
55001,95.11765,1,777,Afton,MN,1814,779,49.94%,125.7532,2712,41.756214,-71.067062,Chartley,MA,Bristol
46077,95.11443,1,778,Zionsville,IN,9905,4298,55.06%,116.8524,2713,41.42178,-70.931309,Cuttyhunk,MA,Dukes
81615,95.11134,1,779,Snowmass Village,CO,1354,412,57.24%,113.0943,2714,41.756214,-71.067062,Dartmouth,MA,Bristol
35244,95.10612,1,780,Birmingham,AL,17663,7511,55.89%,115.3852,2715,41.817659,-71.151787,Dighton,MA,Bristol
91301,95.09689,1,781,Agoura Hills,CA,15992,6827,49.04%,126.9052,2717,41.747358,-70.978947,East Freetown,MA,Bristol
80919,95.08744,1,782,Colorado Springs,CO,18444,8063,59.45%,108.9571,2718,41.871407,-71.013148,East Taunton,MA,Bristol
80007,95.08132,1,783,Arvada,CO,3850,1728,46.68%,130.9666,2719,41.631672,-70.870045,Fairhaven,MA,Bristol
46278,95.07904,1,784,Indianapolis,IN,4478,1851,54.22%,117.9625,2720,41.819766,-71.165971,Fall River,MA,Bristol
78256,95.07727,1,785,San Antonio,TX,1962,818,59.17%,109.3899,2721,41.678895,-71.153648,Fall River,MA,Bristol
95497,95.07652,1,786,The Sea Ranch,CA,729,282,63.79%,101.3808,2722,41.756214,-71.067062,Fall River,MA,Bristol
19382,95.06774,1,787,West Chester,PA,31250,11910,53.03%,119.9121,2723,41.693802,-71.133088,Fall River,MA,Bristol
91364,95.05388,1,788,Woodland Hills,CA,19272,7086,51.54%,122.4005,2724,41.684202,-71.175139,Fall River,MA,Bristol
10549,95.04571,1,789,Mount Kisco,NY,10518,4018,48.88%,126.9183,2725,41.723851,-71.173989,Somerset,MA,Bristol
95762,95.03905,1,790,El Dorado Hills,CA,13728,6359,49.80%,125.2864,2726,41.757951,-71.153639,Somerset,MA,Bristol
75028,95.02919,1,791,Flower Mound,TX,22194,10376,51.01%,123.1485,2738,41.736735,-70.754015,Marion,MA,Plymouth
53045,95.01906,1,792,Brookfield,WI,14689,6121,52.88%,119.8376,2739,41.664976,-70.810856,Mattapoisett,MA,Plymouth
92808,95.01148,1,793,Anaheim,CA,12985,5505,49.73%,125.1255,2740,41.633416,-70.951045,New Bedford,MA,Bristol
48167,95.00076,1,794,Northville,MI,26006,10073,47.67%,128.5972,2741,41.756214,-71.067062,New Bedford,MA,Bristol
78750,94.98939,0,795,Austin,TX,15451,6679,55.14%,115.7017,2742,41.619557,-70.956346,New Bedford,MA,Bristol
55410,94.98131,0,796,Minneapolis,MN,14005,4781,60.79%,105.794,2743,41.711894,-70.908286,Acushnet,MA,Bristol
98115,94.96857,0,797,Seattle,WA,32352,10451,64.17%,99.92941,2744,41.609354,-70.916181,New Bedford,MA,Bristol
63040,94.95827,0,798,Grover,MO,5186,2352,55.94%,114.058,2745,41.7087,-70.946883,New Bedford,MA,Bristol
11803,94.95151,0,799,Plainview,NY,19433,7947,47.23%,129.047,2746,41.665704,-70.943021,New Bedford,MA,Bristol
8820,94.93906,0,800,Edison,NJ,25954,10490,50.65%,123.0713,2747,41.639261,-71.007578,North Dartmouth,MA,Bristol
73151,94.93176,0,801,Oklahoma City,OK,622,280,57.56%,111.146,2748,41.566464,-70.984253,South Dartmouth,MA,Bristol
30307,94.92847,0,802,Atlanta,GA,11421,3405,63.38%,101.0631,2760,41.964376,-71.326448,North Attleboro,MA,Bristol
6783,94.9249,0,803,Roxbury,CT,1539,606,46.59%,129.8238,2761,41.756214,-71.067062,North Attleboro,MA,Bristol
20143,94.92431,0,804,Catharpin,VA,651,261,33.49%,152.253,2762,42.013553,-71.334399,Plainville,MA,Norfolk
80303,94.91677,0,805,Boulder,CO,26775,8786,66.07%,96.07983,2763,41.972584,-71.308229,Attleboro Falls,MA,Bristol
20151,94.90651,0,806,Chantilly,VA,10639,4485,49.92%,123.8559,2764,41.847791,-71.155797,North Dighton,MA,Bristol
11569,94.90322,0,807,Point Lookout,NY,1287,436,49.96%,123.7356,2766,41.959149,-71.180393,Norton,MA,Bristol
55105,94.8982,0,808,Saint Paul,MN,17039,5659,63.67%,100.0562,2767,41.9367,-71.048941,Raynham,MA,Bristol
60134,94.88981,0,809,Geneva,IL,13510,5703,52.94%,118.5156,2768,41.756214,-71.067062,Raynham Center,MA,Bristol
92661,94.88515,0,810,Newport Beach,CA,3456,1009,54.17%,116.2522,2769,41.852989,-71.243061,Rehoboth,MA,Bristol
30639,94.88419,0,,Franklin Springs,GA,30,11,70%,88.80827,2770,41.751812,-70.846041,Rochester,MA,Plymouth
98119,94.8803,0,811,Seattle,WA,14164,3301,61.38%,103.5318,2771,41.840103,-71.318995,Seekonk,MA,Bristol
6482,94.87453,0,812,Sandy Hook,CT,6893,2884,48.69%,125.3008,2777,41.766629,-71.234443,Swansea,MA,Bristol
78259,94.87108,0,813,San Antonio,TX,5689,2700,52.63%,118.4673,2779,41.828249,-71.064135,Berkley,MA,Bristol
43221,94.86391,0,814,Columbus,OH,20377,8165,61.48%,103.2089,2780,41.858851,-71.092827,Taunton,MA,Bristol
23233,94.849,0,815,Henrico,VA,33982,13368,57.95%,109.2748,2783,41.756214,-71.067062,Taunton,MA,Bristol
28031,94.83701,0,816,Cornelius,NC,9733,3879,51.00%,121.2341,2790,41.61547,-71.079636,Westport,MA,Bristol
10968,94.83386,0,817,Piermont,NY,1753,590,53.96%,116.0874,2791,41.519104,-71.085137,Westport Point,MA,Bristol
77459,94.82757,0,818,Missouri City,TX,21156,9423,53.01%,117.7193,2801,41.530131,-71.284066,Adamsville,RI,Newport
75070,94.81586,0,819,McKinney,TX,21507,9921,52.24%,118.9746,2802,41.954098,-71.462053,Albion,RI,Providence
10522,94.80802,0,820,Dobbs Ferry,NY,7029,2578,50.62%,121.7729,2804,41.322365,-71.679251,Ashaway,RI,Washington
92606,94.80292,0,821,Irvine,CA,11569,4505,56.38%,111.8181,2806,41.742501,-71.320395,Barrington,RI,Bristol
6794,94.79955,0,822,Washington Depot,CT,699,274,55.36%,113.5428,2807,41.188888,-71.577696,Block Island,RI,Washington
8055,94.7943,0,823,Medford,NJ,18374,7818,49.79%,122.9863,2808,41.403784,-71.761665,Bradford,RI,Washington
7430,94.78477,0,824,Mahwah,NJ,16374,6315,49.46%,123.5473,2809,41.678378,-71.2704,Bristol,RI,Bristol
7040,94.7759,0,825,Maplewood,NJ,15966,6368,50.79%,121.1871,2812,41.469148,-71.675092,Carolina,RI,Washington
27615,94.76397,0,826,Raleigh,NC,27490,11231,57.31%,109.9312,2813,41.395079,-71.66542,Charlestown,RI,Washington
8867,94.75564,0,827,Pittstown,NJ,2864,1245,44.52%,131.9708,2814,41.888971,-71.688769,Chepachet,RI,Providence
66210,94.75148,0,828,Overland Park,KS,12320,4762,59.50%,106.113,2815,41.770525,-71.65585,Clayville,RI,Providence
43016,94.7448,0,829,Dublin,OH,11980,4732,58.72%,107.3618,2816,41.694251,-71.636786,Coventry,RI,Kent
46038,94.73437,0,830,Fishers,IN,26009,11327,58.52%,107.6325,2817,41.631168,-71.667165,West Greenwich,RI,Kent
11201,94.71729,0,831,Brooklyn,NY,36260,9089,57.51%,109.1754,2818,41.64335,-71.478002,East Greenwich,RI,Kent
19301,94.70598,0,832,Paoli,PA,4902,1862,54.00%,114.9982,2822,41.5469,-71.650262,Exeter,RI,Washington
68116,94.70311,0,833,Omaha,NE,5587,2362,55.59%,112.162,2823,41.7312,-71.546756,Fiskeville,RI,Providence
53097,94.7007,0,834,Mequon,WI,3201,1390,54.01%,114.8727,2824,42.000248,-71.563057,Forestdale,RI,Providence
19803,94.69553,0,835,Wilmington,DE,15605,6334,53.44%,115.8468,2825,41.790569,-71.70644,Foster,RI,Providence
20841,94.69091,0,836,Boyds,MD,1237,500,48.50%,124.3345,2826,41.982417,-71.600848,Glendale,RI,Providence
15228,94.68726,0,837,Pittsburgh,PA,12087,4723,62.32%,100.1752,2827,41.691676,-71.727467,Greene,RI,Kent
11777,94.68214,0,838,Port Jefferson,NY,6522,2266,54.94%,112.8537,2828,41.879298,-71.551682,Greenville,RI,Providence
25909,94.68034,0,,Prosperity,WV,52,18,44.23%,131.2477,2829,41.879298,-71.589357,Harmony,RI,Providence
60137,94.67343,0,839,Glen Ellyn,IL,25095,10435,53.11%,115.9423,2830,41.97239,-71.648502,Harrisville,RI,Providence
10012,94.66093,0,840,New York,NY,20476,4501,64.63%,95.97523,2831,41.753594,-71.577746,Hope,RI,Providence
21111,94.65438,0,841,Monkton,MD,3346,1395,51.14%,119.1184,2832,41.509632,-71.733875,Hope Valley,RI,Washington
85048,94.64777,0,842,Phoenix,AZ,20760,9188,51.76%,117.9664,2833,41.475117,-71.772617,Hopkinton,RI,Washington
90056,94.64046,0,843,Los Angeles,CA,5865,2265,49.80%,121.3257,2835,41.51412,-71.377247,Jamestown,RI,Newport
